{
"type": "FeatureCollection",
"name": "train_stations_europe",
"crs": { "type": "name", "properties": { "name": "urn:ogc:def:crs:EPSG::4258" } },
"features": [
{ "type": "Feature", "properties": { "name": "Port-Bou", "latitude": 42.424725, "longitude": 3.157847, "country": "ES" }, "geometry": { "type": "Point", "coordinates": [ 3.157847, 42.424725 ] } },
{ "type": "Feature", "properties": { "name": "Tortosa", "latitude": 40.807197, "longitude": 0.523576, "country": "ES" }, "geometry": { "type": "Point", "coordinates": [ 0.523576, 40.807197 ] } },
{ "type": "Feature", "properties": { "name": "El Arahal", "latitude": 37.268404, "longitude": -5.548744, "country": "ES" }, "geometry": { "type": "Point", "coordinates": [ -5.548744, 37.268404 ] } },
{ "type": "Feature", "properties": { "name": "Pinos Puente", "latitude": 37.2511, "longitude": -3.74967, "country": "ES" }, "geometry": { "type": "Point", "coordinates": [ -3.74967, 37.2511 ] } },
{ "type": "Feature", "properties": { "name": "Albacete-Los Llanos", "latitude": 39.000086, "longitude": -1.847579, "country": "ES" }, "geometry": { "type": "Point", "coordinates": [ -1.847579, 39.000086 ] } },
{ "type": "Feature", "properties": { "name": "Marchena", "latitude": 37.334322, "longitude": -5.425466, "country": "ES" }, "geometry": { "type": "Point", "coordinates": [ -5.425466, 37.334322 ] } },
{ "type": "Feature", "properties": { "name": "Lorca Sutullena", "latitude": 37.671687, "longitude": -1.696264, "country": "ES" }, "geometry": { "type": "Point", "coordinates": [ -1.696264, 37.671687 ] } },
{ "type": "Feature", "properties": { "name": "Osuna", "latitude": 37.23367, "longitude": -5.114799, "country": "ES" }, "geometry": { "type": "Point", "coordinates": [ -5.114799, 37.23367 ] } },
{ "type": "Feature", "properties": { "name": "Gudillos", "latitude": 40.717089, "longitude": -4.157717, "country": "ES" }, "geometry": { "type": "Point", "coordinates": [ -4.157717, 40.717089 ] } },
{ "type": "Feature", "properties": { "name": "Pedrera", "latitude": 37.222101, "longitude": -4.894635, "country": "ES" }, "geometry": { "type": "Point", "coordinates": [ -4.894635, 37.222101 ] } },
{ "type": "Feature", "properties": { "name": "Loja", "latitude": 37.16887, "longitude": -4.15129, "country": "ES" }, "geometry": { "type": "Point", "coordinates": [ -4.15129, 37.16887 ] } },
{ "type": "Feature", "properties": { "name": "Loja - San Francisco", "latitude": 37.174944, "longitude": -4.149825, "country": "ES" }, "geometry": { "type": "Point", "coordinates": [ -4.149825, 37.174944 ] } },
{ "type": "Feature", "properties": { "name": "Navas de Riofrio - La Losa", "latitude": 40.856684, "longitude": -4.141155, "country": "ES" }, "geometry": { "type": "Point", "coordinates": [ -4.141155, 40.856684 ] } },
{ "type": "Feature", "properties": { "name": "Archidona", "latitude": 37.09654, "longitude": -4.38869, "country": "ES" }, "geometry": { "type": "Point", "coordinates": [ -4.38869, 37.09654 ] } },
{ "type": "Feature", "properties": { "name": "Antequera Ciudad", "latitude": 37.028276, "longitude": -4.561063, "country": "ES" }, "geometry": { "type": "Point", "coordinates": [ -4.561063, 37.028276 ] } },
{ "type": "Feature", "properties": { "name": "Calamocha Nueva", "latitude": 40.903354, "longitude": -1.30028, "country": "ES" }, "geometry": { "type": "Point", "coordinates": [ -1.30028, 40.903354 ] } },
{ "type": "Feature", "properties": { "name": "Bembibre", "latitude": 42.60975, "longitude": -6.422504, "country": "ES" }, "geometry": { "type": "Point", "coordinates": [ -6.422504, 42.60975 ] } },
{ "type": "Feature", "properties": { "name": "Toral de los Vados", "latitude": 42.541, "longitude": -6.776653, "country": "ES" }, "geometry": { "type": "Point", "coordinates": [ -6.776653, 42.541 ] } },
{ "type": "Feature", "properties": { "name": "San Clodio-Quiroga", "latitude": 42.465122, "longitude": -7.287231, "country": "ES" }, "geometry": { "type": "Point", "coordinates": [ -7.287231, 42.465122 ] } },
{ "type": "Feature", "properties": { "name": "Las Matas", "latitude": 40.552335, "longitude": -3.896922, "country": "ES" }, "geometry": { "type": "Point", "coordinates": [ -3.896922, 40.552335 ] } },
{ "type": "Feature", "properties": { "name": "Vega Magaz", "latitude": 42.553585, "longitude": -6.068347, "country": "ES" }, "geometry": { "type": "Point", "coordinates": [ -6.068347, 42.553585 ] } },
{ "type": "Feature", "properties": { "name": "Valladolid Campo Grande", "latitude": 41.641971, "longitude": -4.727004, "country": "ES" }, "geometry": { "type": "Point", "coordinates": [ -4.727004, 41.641971 ] } },
{ "type": "Feature", "properties": { "name": "Ciruelos", "latitude": 39.9385333, "longitude": -3.6148151, "country": "ES" }, "geometry": { "type": "Point", "coordinates": [ -3.6148151, 39.9385333 ] } },
{ "type": "Feature", "properties": { "name": "Briviesca", "latitude": 42.542555, "longitude": -3.319194, "country": "ES" }, "geometry": { "type": "Point", "coordinates": [ -3.319194, 42.542555 ] } },
{ "type": "Feature", "properties": { "name": "Vitoria - Gasteiz", "latitude": 42.841213, "longitude": -2.672618, "country": "ES" }, "geometry": { "type": "Point", "coordinates": [ -2.672618, 42.841213 ] } },
{ "type": "Feature", "properties": { "name": "Zumarraga", "latitude": 43.08705, "longitude": -2.320025, "country": "ES" }, "geometry": { "type": "Point", "coordinates": [ -2.320025, 43.08705 ] } },
{ "type": "Feature", "properties": { "name": "Linares-Congostinas", "latitude": 43.101244, "longitude": -5.772243, "country": "ES" }, "geometry": { "type": "Point", "coordinates": [ -5.772243, 43.101244 ] } },
{ "type": "Feature", "properties": { "name": "Villanueva del Rio y Minas", "latitude": 37.661125, "longitude": -5.711467, "country": "ES" }, "geometry": { "type": "Point", "coordinates": [ -5.711467, 37.661125 ] } },
{ "type": "Feature", "properties": { "name": "Alcolea del Rio", "latitude": 37.6355, "longitude": -5.73091, "country": "ES" }, "geometry": { "type": "Point", "coordinates": [ -5.73091, 37.6355 ] } },
{ "type": "Feature", "properties": { "name": "Pola de Lena", "latitude": 43.16089, "longitude": -5.828784, "country": "ES" }, "geometry": { "type": "Point", "coordinates": [ -5.828784, 43.16089 ] } },
{ "type": "Feature", "properties": { "name": "Palencia", "latitude": 42.01585, "longitude": -4.533826, "country": "ES" }, "geometry": { "type": "Point", "coordinates": [ -4.533826, 42.01585 ] } },
{ "type": "Feature", "properties": { "name": "Sahagun", "latitude": 42.36954, "longitude": -5.022291, "country": "ES" }, "geometry": { "type": "Point", "coordinates": [ -5.022291, 42.36954 ] } },
{ "type": "Feature", "properties": { "name": "Riaza", "latitude": 41.27826, "longitude": -3.47787, "country": "ES" }, "geometry": { "type": "Point", "coordinates": [ -3.47787, 41.27826 ] } },
{ "type": "Feature", "properties": { "name": "Lerma", "latitude": 42.0254298, "longitude": -3.7600156, "country": "ES" }, "geometry": { "type": "Point", "coordinates": [ -3.7600156, 42.0254298 ] } },
{ "type": "Feature", "properties": { "name": "Villalba de Guadarrama", "latitude": 40.626424, "longitude": -4.00811, "country": "ES" }, "geometry": { "type": "Point", "coordinates": [ -4.00811, 40.626424 ] } },
{ "type": "Feature", "properties": { "name": "Reinosa", "latitude": 42.994021, "longitude": -4.140934, "country": "ES" }, "geometry": { "type": "Point", "coordinates": [ -4.140934, 42.994021 ] } },
{ "type": "Feature", "properties": { "name": "Ponferrada", "latitude": 42.545576, "longitude": -6.60263, "country": "ES" }, "geometry": { "type": "Point", "coordinates": [ -6.60263, 42.545576 ] } },
{ "type": "Feature", "properties": { "name": "A Rua-Petin", "latitude": 42.392561, "longitude": -7.11329, "country": "ES" }, "geometry": { "type": "Point", "coordinates": [ -7.11329, 42.392561 ] } },
{ "type": "Feature", "properties": { "name": "Monforte de Lemos", "latitude": 42.52953, "longitude": -7.503215, "country": "ES" }, "geometry": { "type": "Point", "coordinates": [ -7.503215, 42.52953 ] } },
{ "type": "Feature", "properties": { "name": "Navalperal", "latitude": 40.590431, "longitude": -4.408328, "country": "ES" }, "geometry": { "type": "Point", "coordinates": [ -4.408328, 40.590431 ] } },
{ "type": "Feature", "properties": { "name": "Las Fraguas", "latitude": 43.192, "longitude": -4.05336, "country": "ES" }, "geometry": { "type": "Point", "coordinates": [ -4.05336, 43.192 ] } },
{ "type": "Feature", "properties": { "name": "Alegria de Alava-Dulantzi", "latitude": 42.849025, "longitude": -2.514291, "country": "ES" }, "geometry": { "type": "Point", "coordinates": [ -2.514291, 42.849025 ] } },
{ "type": "Feature", "properties": { "name": "Oviedo", "latitude": 43.366237, "longitude": -5.855339, "country": "ES" }, "geometry": { "type": "Point", "coordinates": [ -5.855339, 43.366237 ] } },
{ "type": "Feature", "properties": { "name": "Salvatierra de Alava", "latitude": 42.846319, "longitude": -2.388748, "country": "ES" }, "geometry": { "type": "Point", "coordinates": [ -2.388748, 42.846319 ] } },
{ "type": "Feature", "properties": { "name": "Guitiriz", "latitude": 43.179019, "longitude": -7.895108, "country": "ES" }, "geometry": { "type": "Point", "coordinates": [ -7.895108, 43.179019 ] } },
{ "type": "Feature", "properties": { "name": "Olazagutia", "latitude": 42.8756437, "longitude": -2.1970912, "country": "ES" }, "geometry": { "type": "Point", "coordinates": [ -2.1970912, 42.8756437 ] } },
{ "type": "Feature", "properties": { "name": "Guarnizo", "latitude": 43.3915, "longitude": -3.85948, "country": "ES" }, "geometry": { "type": "Point", "coordinates": [ -3.85948, 43.3915 ] } },
{ "type": "Feature", "properties": { "name": "Boo", "latitude": 43.410417, "longitude": -3.841458, "country": "ES" }, "geometry": { "type": "Point", "coordinates": [ -3.841458, 43.410417 ] } },
{ "type": "Feature", "properties": { "name": "Maliano", "latitude": 43.416136, "longitude": -3.841854, "country": "ES" }, "geometry": { "type": "Point", "coordinates": [ -3.841854, 43.416136 ] } },
{ "type": "Feature", "properties": { "name": "Ourense-Empalme", "latitude": 42.350627, "longitude": -7.872743, "country": "ES" }, "geometry": { "type": "Point", "coordinates": [ -7.872743, 42.350627 ] } },
{ "type": "Feature", "properties": { "name": "Salvaterra de Mino", "latitude": 42.081678, "longitude": -8.49521, "country": "ES" }, "geometry": { "type": "Point", "coordinates": [ -8.49521, 42.081678 ] } },
{ "type": "Feature", "properties": { "name": "Herradon - La Canada", "latitude": 40.599231, "longitude": -4.494876, "country": "ES" }, "geometry": { "type": "Point", "coordinates": [ -4.494876, 40.599231 ] } },
{ "type": "Feature", "properties": { "name": "Guimorcondo", "latitude": 40.648915, "longitude": -4.615124, "country": "ES" }, "geometry": { "type": "Point", "coordinates": [ -4.615124, 40.648915 ] } },
{ "type": "Feature", "properties": { "name": "Zegama - Otzaurte", "latitude": 42.9395, "longitude": -2.26371, "country": "ES" }, "geometry": { "type": "Point", "coordinates": [ -2.26371, 42.9395 ] } },
{ "type": "Feature", "properties": { "name": "Zamora", "latitude": 41.515987, "longitude": -5.739909, "country": "ES" }, "geometry": { "type": "Point", "coordinates": [ -5.739909, 41.515987 ] } },
{ "type": "Feature", "properties": { "name": "O Irixo", "latitude": 42.519273, "longitude": -8.104917, "country": "ES" }, "geometry": { "type": "Point", "coordinates": [ -8.104917, 42.519273 ] } },
{ "type": "Feature", "properties": { "name": "Pobra de San Xian", "latitude": 42.865761, "longitude": -7.446868, "country": "ES" }, "geometry": { "type": "Point", "coordinates": [ -7.446868, 42.865761 ] } },
{ "type": "Feature", "properties": { "name": "Toledo", "latitude": 39.8624, "longitude": -4.01125, "country": "ES" }, "geometry": { "type": "Point", "coordinates": [ -4.01125, 39.8624 ] } },
{ "type": "Feature", "properties": { "name": "Rabade", "latitude": 43.121299, "longitude": -7.624821, "country": "ES" }, "geometry": { "type": "Point", "coordinates": [ -7.624821, 43.121299 ] } },
{ "type": "Feature", "properties": { "name": "Bandeira", "latitude": 42.746485, "longitude": -8.304576, "country": "ES" }, "geometry": { "type": "Point", "coordinates": [ -8.304576, 42.746485 ] } },
{ "type": "Feature", "properties": { "name": "Baamonde", "latitude": 43.173337, "longitude": -7.756324, "country": "ES" }, "geometry": { "type": "Point", "coordinates": [ -7.756324, 43.173337 ] } },
{ "type": "Feature", "properties": { "name": "Parga", "latitude": 43.163764, "longitude": -7.837029, "country": "ES" }, "geometry": { "type": "Point", "coordinates": [ -7.837029, 43.163764 ] } },
{ "type": "Feature", "properties": { "name": "Ourense-San Francisco", "latitude": 42.332603, "longitude": -7.860662, "country": "ES" }, "geometry": { "type": "Point", "coordinates": [ -7.860662, 42.332603 ] } },
{ "type": "Feature", "properties": { "name": "Freginals", "latitude": 40.6722143, "longitude": 0.52046580000001097, "country": "ES" }, "geometry": { "type": "Point", "coordinates": [ 0.520465800000011, 40.6722143 ] } },
{ "type": "Feature", "properties": { "name": "Teixeiro", "latitude": 43.141525, "longitude": -8.037614, "country": "ES" }, "geometry": { "type": "Point", "coordinates": [ -8.037614, 43.141525 ] } },
{ "type": "Feature", "properties": { "name": "Curtis", "latitude": 43.127304, "longitude": -8.143013, "country": "ES" }, "geometry": { "type": "Point", "coordinates": [ -8.143013, 43.127304 ] } },
{ "type": "Feature", "properties": { "name": "Valencia de Alcantara", "latitude": 39.427119, "longitude": -7.23085, "country": "ES" }, "geometry": { "type": "Point", "coordinates": [ -7.23085, 39.427119 ] } },
{ "type": "Feature", "properties": { "name": "Mingorria", "latitude": 40.751886, "longitude": -4.66546, "country": "ES" }, "geometry": { "type": "Point", "coordinates": [ -4.66546, 40.751886 ] } },
{ "type": "Feature", "properties": { "name": "Sanchidrian", "latitude": 40.89347, "longitude": -4.58132, "country": "ES" }, "geometry": { "type": "Point", "coordinates": [ -4.58132, 40.89347 ] } },
{ "type": "Feature", "properties": { "name": "Adanero (Munoz)", "latitude": 40.94487, "longitude": -4.60561, "country": "ES" }, "geometry": { "type": "Point", "coordinates": [ -4.60561, 40.94487 ] } },
{ "type": "Feature", "properties": { "name": "Aranda de Duero-Montecillo", "latitude": 41.667778, "longitude": -3.695836, "country": "ES" }, "geometry": { "type": "Point", "coordinates": [ -3.695836, 41.667778 ] } },
{ "type": "Feature", "properties": { "name": "Segovia Estacion", "latitude": 40.934062, "longitude": -4.11332, "country": "ES" }, "geometry": { "type": "Point", "coordinates": [ -4.11332, 40.934062 ] } },
{ "type": "Feature", "properties": { "name": "Guarena", "latitude": 38.896989, "longitude": -6.128719, "country": "ES" }, "geometry": { "type": "Point", "coordinates": [ -6.128719, 38.896989 ] } },
{ "type": "Feature", "properties": { "name": "Ataquines", "latitude": 41.187441, "longitude": -4.77191, "country": "ES" }, "geometry": { "type": "Point", "coordinates": [ -4.77191, 41.187441 ] } },
{ "type": "Feature", "properties": { "name": "Gomeznarro", "latitude": 41.25036, "longitude": -4.8432, "country": "ES" }, "geometry": { "type": "Point", "coordinates": [ -4.8432, 41.25036 ] } },
{ "type": "Feature", "properties": { "name": "Manzanares", "latitude": 39.005974, "longitude": -3.370559, "country": "ES" }, "geometry": { "type": "Point", "coordinates": [ -3.370559, 39.005974 ] } },
{ "type": "Feature", "properties": { "name": "Matapozuelos", "latitude": 41.423174, "longitude": -4.80112, "country": "ES" }, "geometry": { "type": "Point", "coordinates": [ -4.80112, 41.423174 ] } },
{ "type": "Feature", "properties": { "name": "Hernani", "latitude": 43.2725, "longitude": -1.96377, "country": "ES" }, "geometry": { "type": "Point", "coordinates": [ -1.96377, 43.2725 ] } },
{ "type": "Feature", "properties": { "name": "Pasaia", "latitude": 43.318927, "longitude": -1.917111, "country": "ES" }, "geometry": { "type": "Point", "coordinates": [ -1.917111, 43.318927 ] } },
{ "type": "Feature", "properties": { "name": "Montilla", "latitude": 37.5788, "longitude": -4.63414, "country": "ES" }, "geometry": { "type": "Point", "coordinates": [ -4.63414, 37.5788 ] } },
{ "type": "Feature", "properties": { "name": "Puente Genil Estacion", "latitude": 37.395966, "longitude": -4.75308, "country": "ES" }, "geometry": { "type": "Point", "coordinates": [ -4.75308, 37.395966 ] } },
{ "type": "Feature", "properties": { "name": "La Roda de Andalucia", "latitude": 37.2079, "longitude": -4.77525, "country": "ES" }, "geometry": { "type": "Point", "coordinates": [ -4.77525, 37.2079 ] } },
{ "type": "Feature", "properties": { "name": "Ronda", "latitude": 36.748531, "longitude": -5.162127, "country": "ES" }, "geometry": { "type": "Point", "coordinates": [ -5.162127, 36.748531 ] } },
{ "type": "Feature", "properties": { "name": "San Roque - La Linea", "latitude": 36.213718, "longitude": -5.432298, "country": "ES" }, "geometry": { "type": "Point", "coordinates": [ -5.432298, 36.213718 ] } },
{ "type": "Feature", "properties": { "name": "Moreda", "latitude": 37.43075, "longitude": -3.310987, "country": "ES" }, "geometry": { "type": "Point", "coordinates": [ -3.310987, 37.43075 ] } },
{ "type": "Feature", "properties": { "name": "Cabezon del Pisuerga", "latitude": 41.737239, "longitude": -4.651531, "country": "ES" }, "geometry": { "type": "Point", "coordinates": [ -4.651531, 41.737239 ] } },
{ "type": "Feature", "properties": { "name": "La Encina", "latitude": 38.765162, "longitude": -0.953971, "country": "ES" }, "geometry": { "type": "Point", "coordinates": [ -0.953971, 38.765162 ] } },
{ "type": "Feature", "properties": { "name": "Irun", "latitude": 43.339404, "longitude": -1.80115, "country": "ES" }, "geometry": { "type": "Point", "coordinates": [ -1.80115, 43.339404 ] } },
{ "type": "Feature", "properties": { "name": "Vinaros", "latitude": 40.472448, "longitude": 0.456741, "country": "ES" }, "geometry": { "type": "Point", "coordinates": [ 0.456741, 40.472448 ] } },
{ "type": "Feature", "properties": { "name": "Salou", "latitude": 41.077502, "longitude": 1.129296, "country": "ES" }, "geometry": { "type": "Point", "coordinates": [ 1.129296, 41.077502 ] } },
{ "type": "Feature", "properties": { "name": "Teruel", "latitude": 40.340998, "longitude": -1.110194, "country": "ES" }, "geometry": { "type": "Point", "coordinates": [ -1.110194, 40.340998 ] } },
{ "type": "Feature", "properties": { "name": "Los Rosales", "latitude": 37.589427, "longitude": -5.7254, "country": "ES" }, "geometry": { "type": "Point", "coordinates": [ -5.7254, 37.589427 ] } },
{ "type": "Feature", "properties": { "name": "Calatorao", "latitude": 41.530882, "longitude": -1.357146, "country": "ES" }, "geometry": { "type": "Point", "coordinates": [ -1.357146, 41.530882 ] } },
{ "type": "Feature", "properties": { "name": "La Rinconada", "latitude": 37.48, "longitude": -5.94009, "country": "ES" }, "geometry": { "type": "Point", "coordinates": [ -5.94009, 37.48 ] } },
{ "type": "Feature", "properties": { "name": "Grisen", "latitude": 41.74532, "longitude": -1.165694, "country": "ES" }, "geometry": { "type": "Point", "coordinates": [ -1.165694, 41.74532 ] } },
{ "type": "Feature", "properties": { "name": "Prat de Llobregat", "latitude": 41.331169, "longitude": 2.090261, "country": "ES" }, "geometry": { "type": "Point", "coordinates": [ 2.090261, 41.331169 ] } },
{ "type": "Feature", "properties": { "name": "Montcada i Reixac - Manresa", "latitude": 41.483887, "longitude": 2.185412, "country": "ES" }, "geometry": { "type": "Point", "coordinates": [ 2.185412, 41.483887 ] } },
{ "type": "Feature", "properties": { "name": "Sitges", "latitude": 41.239182, "longitude": 1.8096, "country": "ES" }, "geometry": { "type": "Point", "coordinates": [ 1.8096, 41.239182 ] } },
{ "type": "Feature", "properties": { "name": "Lleida", "latitude": 41.620775, "longitude": 0.63302, "country": "ES" }, "geometry": { "type": "Point", "coordinates": [ 0.63302, 41.620775 ] } },
{ "type": "Feature", "properties": { "name": "Macanet - Massanes", "latitude": 41.775874, "longitude": 2.674389, "country": "ES" }, "geometry": { "type": "Point", "coordinates": [ 2.674389, 41.775874 ] } },
{ "type": "Feature", "properties": { "name": "Llanca", "latitude": 42.36669, "longitude": 3.149101, "country": "ES" }, "geometry": { "type": "Point", "coordinates": [ 3.149101, 42.36669 ] } },
{ "type": "Feature", "properties": { "name": "Santiago de Compostela", "latitude": 42.870518, "longitude": -8.544687, "country": "ES" }, "geometry": { "type": "Point", "coordinates": [ -8.544687, 42.870518 ] } },
{ "type": "Feature", "properties": { "name": "Sevilla San Bernardo", "latitude": 37.377596, "longitude": -5.979552, "country": "ES" }, "geometry": { "type": "Point", "coordinates": [ -5.979552, 37.377596 ] } },
{ "type": "Feature", "properties": { "name": "Caudete", "latitude": 38.716351, "longitude": -0.959535, "country": "ES" }, "geometry": { "type": "Point", "coordinates": [ -0.959535, 38.716351 ] } },
{ "type": "Feature", "properties": { "name": "Villena", "latitude": 38.632598, "longitude": -0.867557, "country": "ES" }, "geometry": { "type": "Point", "coordinates": [ -0.867557, 38.632598 ] } },
{ "type": "Feature", "properties": { "name": "Sax", "latitude": 38.544963, "longitude": -0.813937, "country": "ES" }, "geometry": { "type": "Point", "coordinates": [ -0.813937, 38.544963 ] } },
{ "type": "Feature", "properties": { "name": "Elda Petrer", "latitude": 38.484834, "longitude": -0.800848, "country": "ES" }, "geometry": { "type": "Point", "coordinates": [ -0.800848, 38.484834 ] } },
{ "type": "Feature", "properties": { "name": "Novelda Aspe", "latitude": 38.407329, "longitude": -0.777674, "country": "ES" }, "geometry": { "type": "Point", "coordinates": [ -0.777674, 38.407329 ] } },
{ "type": "Feature", "properties": { "name": "Sant Vicenc de Calders", "latitude": 41.186111, "longitude": 1.524167, "country": "ES" }, "geometry": { "type": "Point", "coordinates": [ 1.524167, 41.186111 ] } },
{ "type": "Feature", "properties": { "name": "Villaverde Bajo", "latitude": 40.352873, "longitude": -3.683779, "country": "ES" }, "geometry": { "type": "Point", "coordinates": [ -3.683779, 40.352873 ] } },
{ "type": "Feature", "properties": { "name": "Pedro Abad", "latitude": 37.9671051, "longitude": -4.455518, "country": "ES" }, "geometry": { "type": "Point", "coordinates": [ -4.455518, 37.9671051 ] } },
{ "type": "Feature", "properties": { "name": "Algeciras", "latitude": 36.12672, "longitude": -5.450995, "country": "ES" }, "geometry": { "type": "Point", "coordinates": [ -5.450995, 36.12672 ] } },
{ "type": "Feature", "properties": { "name": "Sagunt", "latitude": 39.675779, "longitude": -0.271564, "country": "ES" }, "geometry": { "type": "Point", "coordinates": [ -0.271564, 39.675779 ] } },
{ "type": "Feature", "properties": { "name": "Sabadell Sud", "latitude": 41.528725, "longitude": 2.105183, "country": "ES" }, "geometry": { "type": "Point", "coordinates": [ 2.105183, 41.528725 ] } },
{ "type": "Feature", "properties": { "name": "Puigcerda", "latitude": 42.4316, "longitude": 1.92819, "country": "ES" }, "geometry": { "type": "Point", "coordinates": [ 1.92819, 42.4316 ] } },
{ "type": "Feature", "properties": { "name": "Antequera Santa Ana", "latitude": 37.070813, "longitude": -4.720037, "country": "ES" }, "geometry": { "type": "Point", "coordinates": [ -4.720037, 37.070813 ] } },
{ "type": "Feature", "properties": { "name": "Merida", "latitude": 38.921548, "longitude": -6.343157, "country": "ES" }, "geometry": { "type": "Point", "coordinates": [ -6.343157, 38.921548 ] } },
{ "type": "Feature", "properties": { "name": "Mataro", "latitude": 41.533375, "longitude": 2.445464, "country": "ES" }, "geometry": { "type": "Point", "coordinates": [ 2.445464, 41.533375 ] } },
{ "type": "Feature", "properties": { "name": "Logrono", "latitude": 42.457778, "longitude": -2.440833, "country": "ES" }, "geometry": { "type": "Point", "coordinates": [ -2.440833, 42.457778 ] } },
{ "type": "Feature", "properties": { "name": "Jaca", "latitude": 42.578261, "longitude": -0.538759, "country": "ES" }, "geometry": { "type": "Point", "coordinates": [ -0.538759, 42.578261 ] } },
{ "type": "Feature", "properties": { "name": "Huesca", "latitude": 42.133178, "longitude": -0.409953, "country": "ES" }, "geometry": { "type": "Point", "coordinates": [ -0.409953, 42.133178 ] } },
{ "type": "Feature", "properties": { "name": "Huelva", "latitude": 37.252655, "longitude": -6.950675, "country": "ES" }, "geometry": { "type": "Point", "coordinates": [ -6.950675, 37.252655 ] } },
{ "type": "Feature", "properties": { "name": "Gijon-Sanz Crespo", "latitude": 43.537697, "longitude": -5.675932, "country": "ES" }, "geometry": { "type": "Point", "coordinates": [ -5.675932, 43.537697 ] } },
{ "type": "Feature", "properties": { "name": "Elx Parc", "latitude": 38.269209, "longitude": -0.706462, "country": "ES" }, "geometry": { "type": "Point", "coordinates": [ -0.706462, 38.269209 ] } },
{ "type": "Feature", "properties": { "name": "Cartagena", "latitude": 37.605023, "longitude": -0.974763, "country": "ES" }, "geometry": { "type": "Point", "coordinates": [ -0.974763, 37.605023 ] } },
{ "type": "Feature", "properties": { "name": "Cambrils", "latitude": 41.07005, "longitude": 1.052888, "country": "ES" }, "geometry": { "type": "Point", "coordinates": [ 1.052888, 41.07005 ] } },
{ "type": "Feature", "properties": { "name": "Canfranc", "latitude": 42.751258, "longitude": -0.513805, "country": "ES" }, "geometry": { "type": "Point", "coordinates": [ -0.513805, 42.751258 ] } },
{ "type": "Feature", "properties": { "name": "Aguilas", "latitude": 37.410011, "longitude": -1.57286, "country": "ES" }, "geometry": { "type": "Point", "coordinates": [ -1.57286, 37.410011 ] } },
{ "type": "Feature", "properties": { "name": "Malaga-Maria Zambrano", "latitude": 36.711819, "longitude": -4.43214, "country": "ES" }, "geometry": { "type": "Point", "coordinates": [ -4.43214, 36.711819 ] } },
{ "type": "Feature", "properties": { "name": "Aviles", "latitude": 43.5612, "longitude": -5.9228, "country": "ES" }, "geometry": { "type": "Point", "coordinates": [ -5.9228, 43.5612 ] } },
{ "type": "Feature", "properties": { "name": "Ayamonte", "latitude": 37.21667, "longitude": -7.4, "country": "ES" }, "geometry": { "type": "Point", "coordinates": [ -7.4, 37.21667 ] } },
{ "type": "Feature", "properties": { "name": "Ciudad Real", "latitude": 38.985029, "longitude": -3.912914, "country": "ES" }, "geometry": { "type": "Point", "coordinates": [ -3.912914, 38.985029 ] } },
{ "type": "Feature", "properties": { "name": "Gandia", "latitude": 38.970503, "longitude": -0.180566, "country": "ES" }, "geometry": { "type": "Point", "coordinates": [ -0.180566, 38.970503 ] } },
{ "type": "Feature", "properties": { "name": "Guillarei", "latitude": 42.065669, "longitude": -8.622264, "country": "ES" }, "geometry": { "type": "Point", "coordinates": [ -8.622264, 42.065669 ] } },
{ "type": "Feature", "properties": { "name": "Manresa", "latitude": 41.720231, "longitude": 1.826482, "country": "ES" }, "geometry": { "type": "Point", "coordinates": [ 1.826482, 41.720231 ] } },
{ "type": "Feature", "properties": { "name": "Orihuela-Miguel Hernandez", "latitude": 38.077739, "longitude": -0.944541, "country": "ES" }, "geometry": { "type": "Point", "coordinates": [ -0.944541, 38.077739 ] } },
{ "type": "Feature", "properties": { "name": "Pontevedra", "latitude": 42.421534, "longitude": -8.635496, "country": "ES" }, "geometry": { "type": "Point", "coordinates": [ -8.635496, 42.421534 ] } },
{ "type": "Feature", "properties": { "name": "Puertollano", "latitude": 38.691199, "longitude": -4.111989, "country": "ES" }, "geometry": { "type": "Point", "coordinates": [ -4.111989, 38.691199 ] } },
{ "type": "Feature", "properties": { "name": "Santander Estacion", "latitude": 43.458287, "longitude": -3.811435, "country": "ES" }, "geometry": { "type": "Point", "coordinates": [ -3.811435, 43.458287 ] } },
{ "type": "Feature", "properties": { "name": "Talavera de la Reina", "latitude": 39.970778, "longitude": -4.826919, "country": "ES" }, "geometry": { "type": "Point", "coordinates": [ -4.826919, 39.970778 ] } },
{ "type": "Feature", "properties": { "name": "Torrelavega", "latitude": 43.327556, "longitude": -4.042422, "country": "ES" }, "geometry": { "type": "Point", "coordinates": [ -4.042422, 43.327556 ] } },
{ "type": "Feature", "properties": { "name": "Tudela de Navarra", "latitude": 42.05952, "longitude": -1.597553, "country": "ES" }, "geometry": { "type": "Point", "coordinates": [ -1.597553, 42.05952 ] } },
{ "type": "Feature", "properties": { "name": "Utrera", "latitude": 37.183241, "longitude": -5.790221, "country": "ES" }, "geometry": { "type": "Point", "coordinates": [ -5.790221, 37.183241 ] } },
{ "type": "Feature", "properties": { "name": "Caspe", "latitude": 41.240054, "longitude": -0.04233, "country": "ES" }, "geometry": { "type": "Point", "coordinates": [ -0.04233, 41.240054 ] } },
{ "type": "Feature", "properties": { "name": "Sarria", "latitude": 42.784392, "longitude": -7.418725, "country": "ES" }, "geometry": { "type": "Point", "coordinates": [ -7.418725, 42.784392 ] } },
{ "type": "Feature", "properties": { "name": "Jerez de la Frontera", "latitude": 36.6782, "longitude": -6.125159, "country": "ES" }, "geometry": { "type": "Point", "coordinates": [ -6.125159, 36.6782 ] } },
{ "type": "Feature", "properties": { "name": "Puerto de Santa Maria", "latitude": 36.604075, "longitude": -6.217766, "country": "ES" }, "geometry": { "type": "Point", "coordinates": [ -6.217766, 36.604075 ] } },
{ "type": "Feature", "properties": { "name": "Vilanova i la Geltru", "latitude": 41.220089, "longitude": 1.731241, "country": "ES" }, "geometry": { "type": "Point", "coordinates": [ 1.731241, 41.220089 ] } },
{ "type": "Feature", "properties": { "name": "Calasparra", "latitude": 38.269353, "longitude": -1.680065, "country": "ES" }, "geometry": { "type": "Point", "coordinates": [ -1.680065, 38.269353 ] } },
{ "type": "Feature", "properties": { "name": "Guadalajara", "latitude": 40.632399, "longitude": -3.160243, "country": "ES" }, "geometry": { "type": "Point", "coordinates": [ -3.160243, 40.632399 ] } },
{ "type": "Feature", "properties": { "name": "Ferrol", "latitude": 43.488266, "longitude": -8.230855, "country": "ES" }, "geometry": { "type": "Point", "coordinates": [ -8.230855, 43.488266 ] } },
{ "type": "Feature", "properties": { "name": "Betanzos-Cidade", "latitude": 43.284264, "longitude": -8.215673, "country": "ES" }, "geometry": { "type": "Point", "coordinates": [ -8.215673, 43.284264 ] } },
{ "type": "Feature", "properties": { "name": "Reus", "latitude": 41.160644, "longitude": 1.100216, "country": "ES" }, "geometry": { "type": "Point", "coordinates": [ 1.100216, 41.160644 ] } },
{ "type": "Feature", "properties": { "name": "Alacant-Terminal", "latitude": 38.344444, "longitude": -0.494972, "country": "ES" }, "geometry": { "type": "Point", "coordinates": [ -0.494972, 38.344444 ] } },
{ "type": "Feature", "properties": { "name": "Aguilar de la Frontera", "latitude": 37.5245, "longitude": -4.66082, "country": "ES" }, "geometry": { "type": "Point", "coordinates": [ -4.66082, 37.5245 ] } },
{ "type": "Feature", "properties": { "name": "Almeria", "latitude": 36.883792, "longitude": -2.435914, "country": "ES" }, "geometry": { "type": "Point", "coordinates": [ -2.435914, 36.883792 ] } },
{ "type": "Feature", "properties": { "name": "Alsasua", "latitude": 42.8957, "longitude": -2.18146, "country": "ES" }, "geometry": { "type": "Point", "coordinates": [ -2.18146, 42.8957 ] } },
{ "type": "Feature", "properties": { "name": "La Garrovilla", "latitude": 38.915453, "longitude": -6.474067, "country": "ES" }, "geometry": { "type": "Point", "coordinates": [ -6.474067, 38.915453 ] } },
{ "type": "Feature", "properties": { "name": "Corcos-Aguilarejo", "latitude": 41.76613, "longitude": -4.623637, "country": "ES" }, "geometry": { "type": "Point", "coordinates": [ -4.623637, 41.76613 ] } },
{ "type": "Feature", "properties": { "name": "Astorga", "latitude": 42.459513, "longitude": -6.047124, "country": "ES" }, "geometry": { "type": "Point", "coordinates": [ -6.047124, 42.459513 ] } },
{ "type": "Feature", "properties": { "name": "Avila", "latitude": 40.657212, "longitude": -4.682948, "country": "ES" }, "geometry": { "type": "Point", "coordinates": [ -4.682948, 40.657212 ] } },
{ "type": "Feature", "properties": { "name": "Bilbao Abando", "latitude": 43.259715, "longitude": -2.927507, "country": "ES" }, "geometry": { "type": "Point", "coordinates": [ -2.927507, 43.259715 ] } },
{ "type": "Feature", "properties": { "name": "Barcelona Sant Andreu Condal", "latitude": 41.435884, "longitude": 2.193529, "country": "ES" }, "geometry": { "type": "Point", "coordinates": [ 2.193529, 41.435884 ] } },
{ "type": "Feature", "properties": { "name": "Barcelona", "latitude": 41.382270729424299, "longitude": 2.1773850917816202, "country": "ES" }, "geometry": { "type": "Point", "coordinates": [ 2.17738509178162, 41.382270729424299 ] } },
{ "type": "Feature", "properties": { "name": "Benicarlo-Peniscola", "latitude": 40.427088, "longitude": 0.414753, "country": "ES" }, "geometry": { "type": "Point", "coordinates": [ 0.414753, 40.427088 ] } },
{ "type": "Feature", "properties": { "name": "O Barco de Valdeorras", "latitude": 42.4182, "longitude": -6.98493, "country": "ES" }, "geometry": { "type": "Point", "coordinates": [ -6.98493, 42.4182 ] } },
{ "type": "Feature", "properties": { "name": "Badajoz", "latitude": 38.890867, "longitude": -6.981822, "country": "ES" }, "geometry": { "type": "Point", "coordinates": [ -6.981822, 38.890867 ] } },
{ "type": "Feature", "properties": { "name": "Blanes", "latitude": 41.673431, "longitude": 2.769158, "country": "ES" }, "geometry": { "type": "Point", "coordinates": [ 2.769158, 41.673431 ] } },
{ "type": "Feature", "properties": { "name": "Bobadilla", "latitude": 37.037445, "longitude": -4.727831, "country": "ES" }, "geometry": { "type": "Point", "coordinates": [ -4.727831, 37.037445 ] } },
{ "type": "Feature", "properties": { "name": "Barcelona Placa de Catalunya", "latitude": 41.387702, "longitude": 2.169285, "country": "ES" }, "geometry": { "type": "Point", "coordinates": [ 2.169285, 41.387702 ] } },
{ "type": "Feature", "properties": { "name": "Barcelona Passeig de Gracia", "latitude": 41.392089, "longitude": 2.164755, "country": "ES" }, "geometry": { "type": "Point", "coordinates": [ 2.164755, 41.392089 ] } },
{ "type": "Feature", "properties": { "name": "Barcelona Sants", "latitude": 41.378911, "longitude": 2.140367, "country": "ES" }, "geometry": { "type": "Point", "coordinates": [ 2.140367, 41.378911 ] } },
{ "type": "Feature", "properties": { "name": "Barcelona Estacio de Franca", "latitude": 41.383657, "longitude": 2.186733, "country": "ES" }, "geometry": { "type": "Point", "coordinates": [ 2.186733, 41.383657 ] } },
{ "type": "Feature", "properties": { "name": "Burgos", "latitude": 42.35, "longitude": -3.7, "country": "ES" }, "geometry": { "type": "Point", "coordinates": [ -3.7, 42.35 ] } },
{ "type": "Feature", "properties": { "name": "Cadiz", "latitude": 36.527945, "longitude": -6.286893, "country": "ES" }, "geometry": { "type": "Point", "coordinates": [ -6.286893, 36.527945 ] } },
{ "type": "Feature", "properties": { "name": "Caceres", "latitude": 39.461197, "longitude": -6.385972, "country": "ES" }, "geometry": { "type": "Point", "coordinates": [ -6.385972, 39.461197 ] } },
{ "type": "Feature", "properties": { "name": "Calella", "latitude": 41.614536, "longitude": 2.666028, "country": "ES" }, "geometry": { "type": "Point", "coordinates": [ 2.666028, 41.614536 ] } },
{ "type": "Feature", "properties": { "name": "Caldas de Malavella", "latitude": 41.841181, "longitude": 2.800607, "country": "ES" }, "geometry": { "type": "Point", "coordinates": [ 2.800607, 41.841181 ] } },
{ "type": "Feature", "properties": { "name": "Cantalapiedra", "latitude": 41.133361, "longitude": -5.183665, "country": "ES" }, "geometry": { "type": "Point", "coordinates": [ -5.183665, 41.133361 ] } },
{ "type": "Feature", "properties": { "name": "Oza de los Rios", "latitude": 43.218149, "longitude": -8.18706, "country": "ES" }, "geometry": { "type": "Point", "coordinates": [ -8.18706, 43.218149 ] } },
{ "type": "Feature", "properties": { "name": "Caminreal-Fuentes Claras", "latitude": 40.850777, "longitude": -1.338673, "country": "ES" }, "geometry": { "type": "Point", "coordinates": [ -1.338673, 40.850777 ] } },
{ "type": "Feature", "properties": { "name": "Ciudad Rodrigo", "latitude": 40.618648, "longitude": -6.520316, "country": "ES" }, "geometry": { "type": "Point", "coordinates": [ -6.520316, 40.618648 ] } },
{ "type": "Feature", "properties": { "name": "Castellon de la Plana", "latitude": 39.988262, "longitude": -0.052083, "country": "ES" }, "geometry": { "type": "Point", "coordinates": [ -0.052083, 39.988262 ] } },
{ "type": "Feature", "properties": { "name": "Castejon de Ebro", "latitude": 42.172811, "longitude": -1.692156, "country": "ES" }, "geometry": { "type": "Point", "coordinates": [ -1.692156, 42.172811 ] } },
{ "type": "Feature", "properties": { "name": "Cuenca", "latitude": 40.070409, "longitude": -2.137628, "country": "ES" }, "geometry": { "type": "Point", "coordinates": [ -2.137628, 40.070409 ] } },
{ "type": "Feature", "properties": { "name": "Cieza", "latitude": 38.246503, "longitude": -1.42141, "country": "ES" }, "geometry": { "type": "Point", "coordinates": [ -1.42141, 38.246503 ] } },
{ "type": "Feature", "properties": { "name": "San Sebastian-Donostia", "latitude": 43.317668, "longitude": -1.976781, "country": "ES" }, "geometry": { "type": "Point", "coordinates": [ -1.976781, 43.317668 ] } },
{ "type": "Feature", "properties": { "name": "Torrelodones", "latitude": 40.574313, "longitude": -3.956566, "country": "ES" }, "geometry": { "type": "Point", "coordinates": [ -3.956566, 40.574313 ] } },
{ "type": "Feature", "properties": { "name": "Viana", "latitude": 41.524842, "longitude": -4.754754, "country": "ES" }, "geometry": { "type": "Point", "coordinates": [ -4.754754, 41.524842 ] } },
{ "type": "Feature", "properties": { "name": "Fuentes de Onoro", "latitude": 40.598737, "longitude": -6.824583, "country": "ES" }, "geometry": { "type": "Point", "coordinates": [ -6.824583, 40.598737 ] } },
{ "type": "Feature", "properties": { "name": "Fuengirola", "latitude": 36.5418, "longitude": -4.62403, "country": "ES" }, "geometry": { "type": "Point", "coordinates": [ -4.62403, 36.5418 ] } },
{ "type": "Feature", "properties": { "name": "Figueres", "latitude": 42.264951, "longitude": 2.969271, "country": "ES" }, "geometry": { "type": "Point", "coordinates": [ 2.969271, 42.264951 ] } },
{ "type": "Feature", "properties": { "name": "Fuente de San Esteban Boadilla", "latitude": 40.792763, "longitude": -6.249765, "country": "ES" }, "geometry": { "type": "Point", "coordinates": [ -6.249765, 40.792763 ] } },
{ "type": "Feature", "properties": { "name": "Flassa", "latitude": 42.047537, "longitude": 2.957235, "country": "ES" }, "geometry": { "type": "Point", "coordinates": [ 2.957235, 42.047537 ] } },
{ "type": "Feature", "properties": { "name": "Guadix", "latitude": 37.3178, "longitude": -3.127284, "country": "ES" }, "geometry": { "type": "Point", "coordinates": [ -3.127284, 37.3178 ] } },
{ "type": "Feature", "properties": { "name": "Brenes", "latitude": 37.5463, "longitude": -5.86677, "country": "ES" }, "geometry": { "type": "Point", "coordinates": [ -5.86677, 37.5463 ] } },
{ "type": "Feature", "properties": { "name": "Granollers Centro", "latitude": 41.599308, "longitude": 2.29162, "country": "ES" }, "geometry": { "type": "Point", "coordinates": [ 2.29162, 41.599308 ] } },
{ "type": "Feature", "properties": { "name": "Girona", "latitude": 41.979516, "longitude": 2.816482, "country": "ES" }, "geometry": { "type": "Point", "coordinates": [ 2.816482, 41.979516 ] } },
{ "type": "Feature", "properties": { "name": "Granada", "latitude": 37.183906, "longitude": -3.609061, "country": "ES" }, "geometry": { "type": "Point", "coordinates": [ -3.609061, 37.183906 ] } },
{ "type": "Feature", "properties": { "name": "Jaen", "latitude": 37.780223, "longitude": -3.790975, "country": "ES" }, "geometry": { "type": "Point", "coordinates": [ -3.790975, 37.780223 ] } },
{ "type": "Feature", "properties": { "name": "A Coruna-San Cristovo", "latitude": 43.352681, "longitude": -8.409651, "country": "ES" }, "geometry": { "type": "Point", "coordinates": [ -8.409651, 43.352681 ] } },
{ "type": "Feature", "properties": { "name": "Leon", "latitude": 42.595888, "longitude": -5.582382, "country": "ES" }, "geometry": { "type": "Point", "coordinates": [ -5.582382, 42.595888 ] } },
{ "type": "Feature", "properties": { "name": "Lugo", "latitude": 43.015307, "longitude": -7.55226, "country": "ES" }, "geometry": { "type": "Point", "coordinates": [ -7.55226, 43.015307 ] } },
{ "type": "Feature", "properties": { "name": "Valdestillas", "latitude": 41.489083, "longitude": -4.772633, "country": "ES" }, "geometry": { "type": "Point", "coordinates": [ -4.772633, 41.489083 ] } },
{ "type": "Feature", "properties": { "name": "Madrid", "latitude": 40.416824, "longitude": -3.703733, "country": "ES" }, "geometry": { "type": "Point", "coordinates": [ -3.703733, 40.416824 ] } },
{ "type": "Feature", "properties": { "name": "Madrid Principe Pio", "latitude": 40.421272, "longitude": -3.718846, "country": "ES" }, "geometry": { "type": "Point", "coordinates": [ -3.718846, 40.421272 ] } },
{ "type": "Feature", "properties": { "name": "Madrid Atocha", "latitude": 40.405963, "longitude": -3.689757, "country": "ES" }, "geometry": { "type": "Point", "coordinates": [ -3.689757, 40.405963 ] } },
{ "type": "Feature", "properties": { "name": "Madrid-Chamartin-Clara Campoamor", "latitude": 40.472151, "longitude": -3.68235, "country": "ES" }, "geometry": { "type": "Point", "coordinates": [ -3.68235, 40.472151 ] } },
{ "type": "Feature", "properties": { "name": "Medina del Campo Estacion", "latitude": 41.317676, "longitude": -4.910474, "country": "ES" }, "geometry": { "type": "Point", "coordinates": [ -4.910474, 41.317676 ] } },
{ "type": "Feature", "properties": { "name": "Miranda de Ebro", "latitude": 42.690554, "longitude": -2.94091, "country": "ES" }, "geometry": { "type": "Point", "coordinates": [ -2.94091, 42.690554 ] } },
{ "type": "Feature", "properties": { "name": "Murcia", "latitude": 37.974489, "longitude": -1.131499, "country": "ES" }, "geometry": { "type": "Point", "coordinates": [ -1.131499, 37.974489 ] } },
{ "type": "Feature", "properties": { "name": "Cordoba", "latitude": 37.888714, "longitude": -4.789353, "country": "ES" }, "geometry": { "type": "Point", "coordinates": [ -4.789353, 37.888714 ] } },
{ "type": "Feature", "properties": { "name": "Port Aventura", "latitude": 41.089251, "longitude": 1.146214, "country": "ES" }, "geometry": { "type": "Point", "coordinates": [ 1.146214, 41.089251 ] } },
{ "type": "Feature", "properties": { "name": "Plasencia Ciudad", "latitude": 40.021639, "longitude": -6.099738, "country": "ES" }, "geometry": { "type": "Point", "coordinates": [ -6.099738, 40.021639 ] } },
{ "type": "Feature", "properties": { "name": "Pamplona\/Iruna", "latitude": 42.825122, "longitude": -1.661889, "country": "ES" }, "geometry": { "type": "Point", "coordinates": [ -1.661889, 42.825122 ] } },
{ "type": "Feature", "properties": { "name": "Tarragona Estacio", "latitude": 41.111212, "longitude": 1.253527, "country": "ES" }, "geometry": { "type": "Point", "coordinates": [ 1.253527, 41.111212 ] } },
{ "type": "Feature", "properties": { "name": "Redondela de Galicia", "latitude": 42.286165, "longitude": -8.61945, "country": "ES" }, "geometry": { "type": "Point", "coordinates": [ -8.61945, 42.286165 ] } },
{ "type": "Feature", "properties": { "name": "San Fernando de Cadiz", "latitude": 36.4758, "longitude": -6.19444, "country": "ES" }, "geometry": { "type": "Point", "coordinates": [ -6.19444, 36.4758 ] } },
{ "type": "Feature", "properties": { "name": "Salamanca", "latitude": 40.971547, "longitude": -5.648659, "country": "ES" }, "geometry": { "type": "Point", "coordinates": [ -5.648659, 40.971547 ] } },
{ "type": "Feature", "properties": { "name": "Sevilla", "latitude": 37.389254, "longitude": -5.984458, "country": "ES" }, "geometry": { "type": "Point", "coordinates": [ -5.984458, 37.389254 ] } },
{ "type": "Feature", "properties": { "name": "Camp Tarragona", "latitude": 41.192025, "longitude": 1.271587, "country": "ES" }, "geometry": { "type": "Point", "coordinates": [ 1.271587, 41.192025 ] } },
{ "type": "Feature", "properties": { "name": "Torremolinos", "latitude": 36.6225, "longitude": -4.49931, "country": "ES" }, "geometry": { "type": "Point", "coordinates": [ -4.49931, 36.6225 ] } },
{ "type": "Feature", "properties": { "name": "Tui", "latitude": 42.0565, "longitude": -8.64302, "country": "ES" }, "geometry": { "type": "Point", "coordinates": [ -8.64302, 42.0565 ] } },
{ "type": "Feature", "properties": { "name": "Venta de Banos", "latitude": 41.9172, "longitude": -4.49604, "country": "ES" }, "geometry": { "type": "Point", "coordinates": [ -4.49604, 41.9172 ] } },
{ "type": "Feature", "properties": { "name": "Vigo", "latitude": 42.236541, "longitude": -8.713736, "country": "ES" }, "geometry": { "type": "Point", "coordinates": [ -8.713736, 42.236541 ] } },
{ "type": "Feature", "properties": { "name": "Valencia Estacio Nord", "latitude": 39.466932, "longitude": -0.377151, "country": "ES" }, "geometry": { "type": "Point", "coordinates": [ -0.377151, 39.466932 ] } },
{ "type": "Feature", "properties": { "name": "Figueres-Vilafant", "latitude": 42.26478, "longitude": 2.943023, "country": "ES" }, "geometry": { "type": "Point", "coordinates": [ 2.943023, 42.26478 ] } },
{ "type": "Feature", "properties": { "name": "Zaragoza Delicias", "latitude": 41.658439, "longitude": -0.909906, "country": "ES" }, "geometry": { "type": "Point", "coordinates": [ -0.909906, 41.658439 ] } },
{ "type": "Feature", "properties": { "name": "Valencia", "latitude": 39.470036, "longitude": -0.376279, "country": "ES" }, "geometry": { "type": "Point", "coordinates": [ -0.376279, 39.470036 ] } },
{ "type": "Feature", "properties": { "name": "A Albergueria-Prado", "latitude": 42.1257, "longitude": -7.5126, "country": "ES" }, "geometry": { "type": "Point", "coordinates": [ -7.5126, 42.1257 ] } },
{ "type": "Feature", "properties": { "name": "A Escravitude", "latitude": 42.739, "longitude": -8.65259, "country": "ES" }, "geometry": { "type": "Point", "coordinates": [ -8.65259, 42.739 ] } },
{ "type": "Feature", "properties": { "name": "A Friela-Maside", "latitude": 42.411637, "longitude": -8.028661, "country": "ES" }, "geometry": { "type": "Point", "coordinates": [ -8.028661, 42.411637 ] } },
{ "type": "Feature", "properties": { "name": "A Gudina", "latitude": 42.060841, "longitude": -7.132482, "country": "ES" }, "geometry": { "type": "Point", "coordinates": [ -7.132482, 42.060841 ] } },
{ "type": "Feature", "properties": { "name": "A Mezquita-Vilavella", "latitude": 42.0442, "longitude": -7.01972, "country": "ES" }, "geometry": { "type": "Point", "coordinates": [ -7.01972, 42.0442 ] } },
{ "type": "Feature", "properties": { "name": "A Pobra do Brollon", "latitude": 42.533714, "longitude": -7.399964, "country": "ES" }, "geometry": { "type": "Point", "coordinates": [ -7.399964, 42.533714 ] } },
{ "type": "Feature", "properties": { "name": "Abejera", "latitude": 41.809845, "longitude": -6.142913, "country": "ES" }, "geometry": { "type": "Point", "coordinates": [ -6.142913, 41.809845 ] } },
{ "type": "Feature", "properties": { "name": "Ablana", "latitude": 43.267616, "longitude": -5.806411, "country": "ES" }, "geometry": { "type": "Point", "coordinates": [ -5.806411, 43.267616 ] } },
{ "type": "Feature", "properties": { "name": "Malaga Aeropuerto", "latitude": 36.675646, "longitude": -4.487032, "country": "ES" }, "geometry": { "type": "Point", "coordinates": [ -4.487032, 36.675646 ] } },
{ "type": "Feature", "properties": { "name": "Ager", "latitude": 42.006034, "longitude": 0.849471, "country": "ES" }, "geometry": { "type": "Point", "coordinates": [ 0.849471, 42.006034 ] } },
{ "type": "Feature", "properties": { "name": "Agoncillo", "latitude": 42.443818, "longitude": -2.29144, "country": "ES" }, "geometry": { "type": "Point", "coordinates": [ -2.29144, 42.443818 ] } },
{ "type": "Feature", "properties": { "name": "Agres", "latitude": 38.797002, "longitude": -0.521787, "country": "ES" }, "geometry": { "type": "Point", "coordinates": [ -0.521787, 38.797002 ] } },
{ "type": "Feature", "properties": { "name": "Aguadulce Bus", "latitude": 36.81386, "longitude": -2.573793, "country": "ES" }, "geometry": { "type": "Point", "coordinates": [ -2.573793, 36.81386 ] } },
{ "type": "Feature", "properties": { "name": "Aguilar de Campoo", "latitude": 42.785606, "longitude": -4.233388, "country": "ES" }, "geometry": { "type": "Point", "coordinates": [ -4.233388, 42.785606 ] } },
{ "type": "Feature", "properties": { "name": "Aguilar de Segarra", "latitude": 41.738623, "longitude": 1.632503, "country": "ES" }, "geometry": { "type": "Point", "coordinates": [ 1.632503, 41.738623 ] } },
{ "type": "Feature", "properties": { "name": "Agullent", "latitude": 38.830514, "longitude": -0.551443, "country": "ES" }, "geometry": { "type": "Point", "coordinates": [ -0.551443, 38.830514 ] } },
{ "type": "Feature", "properties": { "name": "Alagon", "latitude": 41.771488, "longitude": -1.11246, "country": "ES" }, "geometry": { "type": "Point", "coordinates": [ -1.11246, 41.771488 ] } },
{ "type": "Feature", "properties": { "name": "Alamedilla-Guadahortuna", "latitude": 37.5802039, "longitude": -3.3029375, "country": "ES" }, "geometry": { "type": "Point", "coordinates": [ -3.3029375, 37.5802039 ] } },
{ "type": "Feature", "properties": { "name": "Alanis", "latitude": 37.99666, "longitude": -5.758413, "country": "ES" }, "geometry": { "type": "Point", "coordinates": [ -5.758413, 37.99666 ] } },
{ "type": "Feature", "properties": { "name": "Alar del Rey-San Quirce", "latitude": 42.6568, "longitude": -4.31138, "country": "ES" }, "geometry": { "type": "Point", "coordinates": [ -4.31138, 42.6568 ] } },
{ "type": "Feature", "properties": { "name": "Albaida", "latitude": 38.845787, "longitude": -0.518587, "country": "ES" }, "geometry": { "type": "Point", "coordinates": [ -0.518587, 38.845787 ] } },
{ "type": "Feature", "properties": { "name": "Albatera-Catral", "latitude": 38.166885, "longitude": -0.838289, "country": "ES" }, "geometry": { "type": "Point", "coordinates": [ -0.838289, 38.166885 ] } },
{ "type": "Feature", "properties": { "name": "Albuixech", "latitude": 39.543296, "longitude": -0.320564, "country": "ES" }, "geometry": { "type": "Point", "coordinates": [ -0.320564, 39.543296 ] } },
{ "type": "Feature", "properties": { "name": "Alcala de Henares", "latitude": 40.489087, "longitude": -3.366226, "country": "ES" }, "geometry": { "type": "Point", "coordinates": [ -3.366226, 40.489087 ] } },
{ "type": "Feature", "properties": { "name": "Alcala de Xivert", "latitude": 40.303441, "longitude": 0.228874, "country": "ES" }, "geometry": { "type": "Point", "coordinates": [ 0.228874, 40.303441 ] } },
{ "type": "Feature", "properties": { "name": "Alcala Henares-Universidad", "latitude": 40.505348, "longitude": -3.335267, "country": "ES" }, "geometry": { "type": "Point", "coordinates": [ -3.335267, 40.505348 ] } },
{ "type": "Feature", "properties": { "name": "Alcanadre", "latitude": 42.407681, "longitude": -2.121939, "country": "ES" }, "geometry": { "type": "Point", "coordinates": [ -2.121939, 42.407681 ] } },
{ "type": "Feature", "properties": { "name": "Alcantarilla", "latitude": 37.972189, "longitude": -1.215776, "country": "ES" }, "geometry": { "type": "Point", "coordinates": [ -1.215776, 37.972189 ] } },
{ "type": "Feature", "properties": { "name": "Alcantarilla los Romanos", "latitude": 37.964053, "longitude": -1.216977, "country": "ES" }, "geometry": { "type": "Point", "coordinates": [ -1.216977, 37.964053 ] } },
{ "type": "Feature", "properties": { "name": "Alcazar de San Juan", "latitude": 39.395477, "longitude": -3.206209, "country": "ES" }, "geometry": { "type": "Point", "coordinates": [ -3.206209, 39.395477 ] } },
{ "type": "Feature", "properties": { "name": "Alcoletge", "latitude": 41.654719, "longitude": 0.68644, "country": "ES" }, "geometry": { "type": "Point", "coordinates": [ 0.68644, 41.654719 ] } },
{ "type": "Feature", "properties": { "name": "Alcover", "latitude": 41.261575, "longitude": 1.17426, "country": "ES" }, "geometry": { "type": "Point", "coordinates": [ 1.17426, 41.261575 ] } },
{ "type": "Feature", "properties": { "name": "Alcoi", "latitude": 38.709645, "longitude": -0.470144, "country": "ES" }, "geometry": { "type": "Point", "coordinates": [ -0.470144, 38.709645 ] } },
{ "type": "Feature", "properties": { "name": "Aldaia", "latitude": 39.461, "longitude": -0.463239, "country": "ES" }, "geometry": { "type": "Point", "coordinates": [ -0.463239, 39.461 ] } },
{ "type": "Feature", "properties": { "name": "Aldealengua", "latitude": 40.979601, "longitude": -5.553158, "country": "ES" }, "geometry": { "type": "Point", "coordinates": [ -5.553158, 40.979601 ] } },
{ "type": "Feature", "properties": { "name": "Alfafar-Benetusser", "latitude": 39.422409, "longitude": -0.392765, "country": "ES" }, "geometry": { "type": "Point", "coordinates": [ -0.392765, 39.422409 ] } },
{ "type": "Feature", "properties": { "name": "Alfaro", "latitude": 42.186295, "longitude": -1.747745, "country": "ES" }, "geometry": { "type": "Point", "coordinates": [ -1.747745, 42.186295 ] } },
{ "type": "Feature", "properties": { "name": "Algemesi", "latitude": 39.192941, "longitude": -0.441082, "country": "ES" }, "geometry": { "type": "Point", "coordinates": [ -0.441082, 39.192941 ] } },
{ "type": "Feature", "properties": { "name": "Alhama de Aragon", "latitude": 41.294439, "longitude": -1.901838, "country": "ES" }, "geometry": { "type": "Point", "coordinates": [ -1.901838, 41.294439 ] } },
{ "type": "Feature", "properties": { "name": "Alhama de Murcia", "latitude": 37.84935, "longitude": -1.414452, "country": "ES" }, "geometry": { "type": "Point", "coordinates": [ -1.414452, 37.84935 ] } },
{ "type": "Feature", "properties": { "name": "Aljucen", "latitude": 38.936281, "longitude": -6.407564, "country": "ES" }, "geometry": { "type": "Point", "coordinates": [ -6.407564, 38.936281 ] } },
{ "type": "Feature", "properties": { "name": "Almadenejos-Almaden", "latitude": 38.740433, "longitude": -4.730393, "country": "ES" }, "geometry": { "type": "Point", "coordinates": [ -4.730393, 38.740433 ] } },
{ "type": "Feature", "properties": { "name": "Almagro", "latitude": 38.895434, "longitude": -3.708976, "country": "ES" }, "geometry": { "type": "Point", "coordinates": [ -3.708976, 38.895434 ] } },
{ "type": "Feature", "properties": { "name": "Almansa", "latitude": 38.867675, "longitude": -1.105619, "country": "ES" }, "geometry": { "type": "Point", "coordinates": [ -1.105619, 38.867675 ] } },
{ "type": "Feature", "properties": { "name": "Almargen-Canete la Real", "latitude": 37.001038, "longitude": -5.020358, "country": "ES" }, "geometry": { "type": "Point", "coordinates": [ -5.020358, 37.001038 ] } },
{ "type": "Feature", "properties": { "name": "Almazora", "latitude": 39.954858, "longitude": -0.076668, "country": "ES" }, "geometry": { "type": "Point", "coordinates": [ -0.076668, 39.954858 ] } },
{ "type": "Feature", "properties": { "name": "Almazan", "latitude": 41.4891, "longitude": -2.52545, "country": "ES" }, "geometry": { "type": "Point", "coordinates": [ -2.52545, 41.4891 ] } },
{ "type": "Feature", "properties": { "name": "Almenara", "latitude": 39.748735, "longitude": -0.218141, "country": "ES" }, "geometry": { "type": "Point", "coordinates": [ -0.218141, 39.748735 ] } },
{ "type": "Feature", "properties": { "name": "Almendralejo", "latitude": 38.684718, "longitude": -6.399582, "country": "ES" }, "geometry": { "type": "Point", "coordinates": [ -6.399582, 38.684718 ] } },
{ "type": "Feature", "properties": { "name": "Almonaster-Cortegana", "latitude": 37.900975, "longitude": -6.797319, "country": "ES" }, "geometry": { "type": "Point", "coordinates": [ -6.797319, 37.900975 ] } },
{ "type": "Feature", "properties": { "name": "Almoraima", "latitude": 36.277326, "longitude": -5.429763, "country": "ES" }, "geometry": { "type": "Point", "coordinates": [ -5.429763, 36.277326 ] } },
{ "type": "Feature", "properties": { "name": "Almorchon", "latitude": 38.69653, "longitude": -5.290115, "country": "ES" }, "geometry": { "type": "Point", "coordinates": [ -5.290115, 38.69653 ] } },
{ "type": "Feature", "properties": { "name": "Almuradiel-Viso del Marques", "latitude": 38.5143, "longitude": -3.50189, "country": "ES" }, "geometry": { "type": "Point", "coordinates": [ -3.50189, 38.5143 ] } },
{ "type": "Feature", "properties": { "name": "Alora", "latitude": 36.819906, "longitude": -4.698823, "country": "ES" }, "geometry": { "type": "Point", "coordinates": [ -4.698823, 36.819906 ] } },
{ "type": "Feature", "properties": { "name": "Alpedrete-Mataespesa", "latitude": 40.658057, "longitude": -4.035122, "country": "ES" }, "geometry": { "type": "Point", "coordinates": [ -4.035122, 40.658057 ] } },
{ "type": "Feature", "properties": { "name": "Altafulla-Tamarit", "latitude": 41.136562, "longitude": 1.373318, "country": "ES" }, "geometry": { "type": "Point", "coordinates": [ 1.373318, 41.136562 ] } },
{ "type": "Feature", "properties": { "name": "Aeropuerto Alacant-Altet Bus", "latitude": 38.287366, "longitude": -0.559905, "country": "ES" }, "geometry": { "type": "Point", "coordinates": [ -0.559905, 38.287366 ] } },
{ "type": "Feature", "properties": { "name": "Altsasu Pueblo", "latitude": 42.894789, "longitude": -2.181187, "country": "ES" }, "geometry": { "type": "Point", "coordinates": [ -2.181187, 42.894789 ] } },
{ "type": "Feature", "properties": { "name": "Alzira", "latitude": 39.15346, "longitude": -0.451042, "country": "ES" }, "geometry": { "type": "Point", "coordinates": [ -0.451042, 39.15346 ] } },
{ "type": "Feature", "properties": { "name": "Ametzola", "latitude": 43.254726, "longitude": -2.943409, "country": "ES" }, "geometry": { "type": "Point", "coordinates": [ -2.943409, 43.254726 ] } },
{ "type": "Feature", "properties": { "name": "Amusco", "latitude": 42.178106, "longitude": -4.480592, "country": "ES" }, "geometry": { "type": "Point", "coordinates": [ -4.480592, 42.178106 ] } },
{ "type": "Feature", "properties": { "name": "Andujar", "latitude": 38.028173, "longitude": -4.065847, "country": "ES" }, "geometry": { "type": "Point", "coordinates": [ -4.065847, 38.028173 ] } },
{ "type": "Feature", "properties": { "name": "Anglesola", "latitude": 41.638573, "longitude": 1.036384, "country": "ES" }, "geometry": { "type": "Point", "coordinates": [ 1.036384, 41.638573 ] } },
{ "type": "Feature", "properties": { "name": "Antequera", "latitude": 37.020055, "longitude": -4.55936, "country": "ES" }, "geometry": { "type": "Point", "coordinates": [ -4.55936, 37.020055 ] } },
{ "type": "Feature", "properties": { "name": "Anzanigo", "latitude": 42.403393, "longitude": -0.645686, "country": "ES" }, "geometry": { "type": "Point", "coordinates": [ -0.645686, 42.403393 ] } },
{ "type": "Feature", "properties": { "name": "Araia", "latitude": 42.869394, "longitude": -2.30656, "country": "ES" }, "geometry": { "type": "Point", "coordinates": [ -2.30656, 42.869394 ] } },
{ "type": "Feature", "properties": { "name": "Aranguren (Biscay)", "latitude": 43.21049, "longitude": -3.111031, "country": "ES" }, "geometry": { "type": "Point", "coordinates": [ -3.111031, 43.21049 ] } },
{ "type": "Feature", "properties": { "name": "Aranguren Apeadero", "latitude": 43.210823, "longitude": -3.115876, "country": "ES" }, "geometry": { "type": "Point", "coordinates": [ -3.115876, 43.210823 ] } },
{ "type": "Feature", "properties": { "name": "Aranjuez", "latitude": 40.0347, "longitude": -3.618877, "country": "ES" }, "geometry": { "type": "Point", "coordinates": [ -3.618877, 40.0347 ] } },
{ "type": "Feature", "properties": { "name": "Aravaca", "latitude": 40.448581, "longitude": -3.785627, "country": "ES" }, "geometry": { "type": "Point", "coordinates": [ -3.785627, 40.448581 ] } },
{ "type": "Feature", "properties": { "name": "Aranales de Muel", "latitude": 41.468048, "longitude": -1.087479, "country": "ES" }, "geometry": { "type": "Point", "coordinates": [ -1.087479, 41.468048 ] } },
{ "type": "Feature", "properties": { "name": "Arbo", "latitude": 42.106866, "longitude": -8.300225, "country": "ES" }, "geometry": { "type": "Point", "coordinates": [ -8.300225, 42.106866 ] } },
{ "type": "Feature", "properties": { "name": "Arcade", "latitude": 42.34046, "longitude": -8.610623, "country": "ES" }, "geometry": { "type": "Point", "coordinates": [ -8.610623, 42.34046 ] } },
{ "type": "Feature", "properties": { "name": "Archena-Fortuna", "latitude": 38.127647, "longitude": -1.233517, "country": "ES" }, "geometry": { "type": "Point", "coordinates": [ -1.233517, 38.127647 ] } },
{ "type": "Feature", "properties": { "name": "Arcos de Jalon", "latitude": 41.216026, "longitude": -2.277686, "country": "ES" }, "geometry": { "type": "Point", "coordinates": [ -2.277686, 41.216026 ] } },
{ "type": "Feature", "properties": { "name": "Areas", "latitude": 42.458093, "longitude": -7.629261, "country": "ES" }, "geometry": { "type": "Point", "coordinates": [ -7.629261, 42.458093 ] } },
{ "type": "Feature", "properties": { "name": "Arenas de Iguna", "latitude": 43.185518, "longitude": -4.050341, "country": "ES" }, "geometry": { "type": "Point", "coordinates": [ -4.050341, 43.185518 ] } },
{ "type": "Feature", "properties": { "name": "Arenys de Mar", "latitude": 41.577465, "longitude": 2.549457, "country": "ES" }, "geometry": { "type": "Point", "coordinates": [ 2.549457, 41.577465 ] } },
{ "type": "Feature", "properties": { "name": "Arevalo", "latitude": 41.047613, "longitude": -4.702005, "country": "ES" }, "geometry": { "type": "Point", "coordinates": [ -4.702005, 41.047613 ] } },
{ "type": "Feature", "properties": { "name": "Arguisuelas", "latitude": 39.838537, "longitude": -1.811838, "country": "ES" }, "geometry": { "type": "Point", "coordinates": [ -1.811838, 39.838537 ] } },
{ "type": "Feature", "properties": { "name": "Arija", "latitude": 42.991018, "longitude": -3.947657, "country": "ES" }, "geometry": { "type": "Point", "coordinates": [ -3.947657, 42.991018 ] } },
{ "type": "Feature", "properties": { "name": "Ariza", "latitude": 41.309478, "longitude": -2.059662, "country": "ES" }, "geometry": { "type": "Point", "coordinates": [ -2.059662, 41.309478 ] } },
{ "type": "Feature", "properties": { "name": "Arla-Berron", "latitude": 43.166101, "longitude": -3.228278, "country": "ES" }, "geometry": { "type": "Point", "coordinates": [ -3.228278, 43.166101 ] } },
{ "type": "Feature", "properties": { "name": "Arriate", "latitude": 36.790592, "longitude": -5.141164, "country": "ES" }, "geometry": { "type": "Point", "coordinates": [ -5.141164, 36.790592 ] } },
{ "type": "Feature", "properties": { "name": "Arriondas", "latitude": 43.387523, "longitude": -5.18851, "country": "ES" }, "geometry": { "type": "Point", "coordinates": [ -5.18851, 43.387523 ] } },
{ "type": "Feature", "properties": { "name": "Arroyo-Malpartida", "latitude": 39.46829, "longitude": -6.53478, "country": "ES" }, "geometry": { "type": "Point", "coordinates": [ -6.53478, 39.46829 ] } },
{ "type": "Feature", "properties": { "name": "Arrubal", "latitude": 42.431, "longitude": -2.2561, "country": "ES" }, "geometry": { "type": "Point", "coordinates": [ -2.2561, 42.431 ] } },
{ "type": "Feature", "properties": { "name": "Artzentales", "latitude": 43.236624, "longitude": -3.212778, "country": "ES" }, "geometry": { "type": "Point", "coordinates": [ -3.212778, 43.236624 ] } },
{ "type": "Feature", "properties": { "name": "As Neves", "latitude": 42.075415, "longitude": -8.420145, "country": "ES" }, "geometry": { "type": "Point", "coordinates": [ -8.420145, 42.075415 ] } },
{ "type": "Feature", "properties": { "name": "Asamblea de Madrid Entrevias", "latitude": 40.381695, "longitude": -3.668008, "country": "ES" }, "geometry": { "type": "Point", "coordinates": [ -3.668008, 40.381695 ] } },
{ "type": "Feature", "properties": { "name": "Asco", "latitude": 41.183144, "longitude": 0.569277, "country": "ES" }, "geometry": { "type": "Point", "coordinates": [ 0.569277, 41.183144 ] } },
{ "type": "Feature", "properties": { "name": "Astillero", "latitude": 43.404513, "longitude": -3.822375, "country": "ES" }, "geometry": { "type": "Point", "coordinates": [ -3.822375, 43.404513 ] } },
{ "type": "Feature", "properties": { "name": "Astun", "latitude": 42.80922, "longitude": -0.509082, "country": "ES" }, "geometry": { "type": "Point", "coordinates": [ -0.509082, 42.80922 ] } },
{ "type": "Feature", "properties": { "name": "Ateca", "latitude": 41.324571, "longitude": -1.785608, "country": "ES" }, "geometry": { "type": "Point", "coordinates": [ -1.785608, 41.324571 ] } },
{ "type": "Feature", "properties": { "name": "Ayerbe", "latitude": 42.275414, "longitude": -0.682452, "country": "ES" }, "geometry": { "type": "Point", "coordinates": [ -0.682452, 42.275414 ] } },
{ "type": "Feature", "properties": { "name": "Azaila", "latitude": 41.2749, "longitude": -0.485392, "country": "ES" }, "geometry": { "type": "Point", "coordinates": [ -0.485392, 41.2749 ] } },
{ "type": "Feature", "properties": { "name": "Azuqueca", "latitude": 40.561153, "longitude": -3.265439, "country": "ES" }, "geometry": { "type": "Point", "coordinates": [ -3.265439, 40.561153 ] } },
{ "type": "Feature", "properties": { "name": "Babilafuente", "latitude": 40.972167, "longitude": -5.430311, "country": "ES" }, "geometry": { "type": "Point", "coordinates": [ -5.430311, 40.972167 ] } },
{ "type": "Feature", "properties": { "name": "Badules", "latitude": 41.139789, "longitude": -1.251541, "country": "ES" }, "geometry": { "type": "Point", "coordinates": [ -1.251541, 41.139789 ] } },
{ "type": "Feature", "properties": { "name": "Baides", "latitude": 41.004942, "longitude": -2.786125, "country": "ES" }, "geometry": { "type": "Point", "coordinates": [ -2.786125, 41.004942 ] } },
{ "type": "Feature", "properties": { "name": "Balaguer", "latitude": 41.792496, "longitude": 0.80795, "country": "ES" }, "geometry": { "type": "Point", "coordinates": [ 0.80795, 41.792496 ] } },
{ "type": "Feature", "properties": { "name": "Balmaseda", "latitude": 43.191163, "longitude": -3.195818, "country": "ES" }, "geometry": { "type": "Point", "coordinates": [ -3.195818, 43.191163 ] } },
{ "type": "Feature", "properties": { "name": "Balmori", "latitude": 43.421413, "longitude": -4.835621, "country": "ES" }, "geometry": { "type": "Point", "coordinates": [ -4.835621, 43.421413 ] } },
{ "type": "Feature", "properties": { "name": "Balsicas-Mar Menor", "latitude": 37.818346, "longitude": -0.951427, "country": "ES" }, "geometry": { "type": "Point", "coordinates": [ -0.951427, 37.818346 ] } },
{ "type": "Feature", "properties": { "name": "Barallobre", "latitude": 43.462673, "longitude": -8.188435, "country": "ES" }, "geometry": { "type": "Point", "coordinates": [ -8.188435, 43.462673 ] } },
{ "type": "Feature", "properties": { "name": "Barbantes", "latitude": 42.338491, "longitude": -8.011429, "country": "ES" }, "geometry": { "type": "Point", "coordinates": [ -8.011429, 42.338491 ] } },
{ "type": "Feature", "properties": { "name": "Barbastro", "latitude": 42.035417, "longitude": 0.120653, "country": "ES" }, "geometry": { "type": "Point", "coordinates": [ 0.120653, 42.035417 ] } },
{ "type": "Feature", "properties": { "name": "Barbera del Valles", "latitude": 41.513479, "longitude": 2.118397, "country": "ES" }, "geometry": { "type": "Point", "coordinates": [ 2.118397, 41.513479 ] } },
{ "type": "Feature", "properties": { "name": "Barcelona la Sagrera Meridiana", "latitude": 41.422958, "longitude": 2.186778, "country": "ES" }, "geometry": { "type": "Point", "coordinates": [ 2.186778, 41.422958 ] } },
{ "type": "Feature", "properties": { "name": "Barcelona-Arc de Triomf", "latitude": 41.391568, "longitude": 2.17983, "country": "ES" }, "geometry": { "type": "Point", "coordinates": [ 2.17983, 41.391568 ] } },
{ "type": "Feature", "properties": { "name": "Barcelona-Clot-Arago", "latitude": 41.409106, "longitude": 2.18739, "country": "ES" }, "geometry": { "type": "Point", "coordinates": [ 2.18739, 41.409106 ] } },
{ "type": "Feature", "properties": { "name": "Barcelona-Torre del Baro", "latitude": 41.460524, "longitude": 2.181421, "country": "ES" }, "geometry": { "type": "Point", "coordinates": [ 2.181421, 41.460524 ] } },
{ "type": "Feature", "properties": { "name": "Barcena", "latitude": 43.128751, "longitude": -4.053865, "country": "ES" }, "geometry": { "type": "Point", "coordinates": [ -4.053865, 43.128751 ] } },
{ "type": "Feature", "properties": { "name": "Barra de Mino", "latitude": 42.400787, "longitude": -7.80251, "country": "ES" }, "geometry": { "type": "Point", "coordinates": [ -7.80251, 42.400787 ] } },
{ "type": "Feature", "properties": { "name": "Barracas", "latitude": 40.01175, "longitude": -0.696313, "country": "ES" }, "geometry": { "type": "Point", "coordinates": [ -0.696313, 40.01175 ] } },
{ "type": "Feature", "properties": { "name": "Barrientos", "latitude": 42.414846, "longitude": -5.965025, "country": "ES" }, "geometry": { "type": "Point", "coordinates": [ -5.965025, 42.414846 ] } },
{ "type": "Feature", "properties": { "name": "Basurto Hospital", "latitude": 43.259844, "longitude": -2.953745, "country": "ES" }, "geometry": { "type": "Point", "coordinates": [ -2.953745, 43.259844 ] } },
{ "type": "Feature", "properties": { "name": "Banos de Molgas", "latitude": 42.2375, "longitude": -7.68306, "country": "ES" }, "geometry": { "type": "Point", "coordinates": [ -7.68306, 42.2375 ] } },
{ "type": "Feature", "properties": { "name": "Beasain", "latitude": 43.046077, "longitude": -2.201952, "country": "ES" }, "geometry": { "type": "Point", "coordinates": [ -2.201952, 43.046077 ] } },
{ "type": "Feature", "properties": { "name": "Becerril", "latitude": 42.1047, "longitude": -4.647171, "country": "ES" }, "geometry": { "type": "Point", "coordinates": [ -4.647171, 42.1047 ] } },
{ "type": "Feature", "properties": { "name": "Begonte", "latitude": 43.149107, "longitude": -7.686228, "country": "ES" }, "geometry": { "type": "Point", "coordinates": [ -7.686228, 43.149107 ] } },
{ "type": "Feature", "properties": { "name": "Bell-Lloc d'Urgell", "latitude": 41.627813, "longitude": 0.744675, "country": "ES" }, "geometry": { "type": "Point", "coordinates": [ 0.744675, 41.627813 ] } },
{ "type": "Feature", "properties": { "name": "Bellavista (Sevilla)", "latitude": 37.321485, "longitude": -5.964321, "country": "ES" }, "geometry": { "type": "Point", "coordinates": [ -5.964321, 37.321485 ] } },
{ "type": "Feature", "properties": { "name": "Bellpuig", "latitude": 41.636685, "longitude": 1.012625, "country": "ES" }, "geometry": { "type": "Point", "coordinates": [ 1.012625, 41.636685 ] } },
{ "type": "Feature", "properties": { "name": "Bellvitge", "latitude": 41.354658, "longitude": 2.115521, "country": "ES" }, "geometry": { "type": "Point", "coordinates": [ 2.115521, 41.354658 ] } },
{ "type": "Feature", "properties": { "name": "Belmonte", "latitude": 37.46188, "longitude": -6.94753, "country": "ES" }, "geometry": { "type": "Point", "coordinates": [ -6.94753, 37.46188 ] } },
{ "type": "Feature", "properties": { "name": "Benacazon", "latitude": 37.357155, "longitude": -6.208256, "country": "ES" }, "geometry": { "type": "Point", "coordinates": [ -6.208256, 37.357155 ] } },
{ "type": "Feature", "properties": { "name": "Benalmadena-Arroyo de la Miel", "latitude": 36.599023, "longitude": -4.536747, "country": "ES" }, "geometry": { "type": "Point", "coordinates": [ -4.536747, 36.599023 ] } },
{ "type": "Feature", "properties": { "name": "Benalua de Guadix", "latitude": 37.345487, "longitude": -3.163537, "country": "ES" }, "geometry": { "type": "Point", "coordinates": [ -3.163537, 37.345487 ] } },
{ "type": "Feature", "properties": { "name": "Benaojan-Montejaque", "latitude": 36.713491, "longitude": -5.246617, "country": "ES" }, "geometry": { "type": "Point", "coordinates": [ -5.246617, 36.713491 ] } },
{ "type": "Feature", "properties": { "name": "Benasque-Bus", "latitude": 42.603089, "longitude": 0.522259, "country": "ES" }, "geometry": { "type": "Point", "coordinates": [ 0.522259, 42.603089 ] } },
{ "type": "Feature", "properties": { "name": "Benicassim", "latitude": 40.058126, "longitude": 0.057863, "country": "ES" }, "geometry": { "type": "Point", "coordinates": [ 0.057863, 40.058126 ] } },
{ "type": "Feature", "properties": { "name": "Beniel", "latitude": 38.044605, "longitude": -0.999474, "country": "ES" }, "geometry": { "type": "Point", "coordinates": [ -0.999474, 38.044605 ] } },
{ "type": "Feature", "properties": { "name": "Benifaio-Almussafes", "latitude": 39.284244, "longitude": -0.430106, "country": "ES" }, "geometry": { "type": "Point", "coordinates": [ -0.430106, 39.284244 ] } },
{ "type": "Feature", "properties": { "name": "Beniganim", "latitude": 38.9386, "longitude": -0.453865, "country": "ES" }, "geometry": { "type": "Point", "coordinates": [ -0.453865, 38.9386 ] } },
{ "type": "Feature", "properties": { "name": "Beranga", "latitude": 43.41371, "longitude": -3.57713, "country": "ES" }, "geometry": { "type": "Point", "coordinates": [ -3.57713, 43.41371 ] } },
{ "type": "Feature", "properties": { "name": "Bercedo Montija", "latitude": 43.087724, "longitude": -3.450868, "country": "ES" }, "geometry": { "type": "Point", "coordinates": [ -3.450868, 43.087724 ] } },
{ "type": "Feature", "properties": { "name": "Betanzos-Infesta", "latitude": 43.270808, "longitude": -8.225983, "country": "ES" }, "geometry": { "type": "Point", "coordinates": [ -8.225983, 43.270808 ] } },
{ "type": "Feature", "properties": { "name": "Biescas-Bus", "latitude": 42.628584, "longitude": -0.32144, "country": "ES" }, "geometry": { "type": "Point", "coordinates": [ -0.32144, 42.628584 ] } },
{ "type": "Feature", "properties": { "name": "Bilbao", "latitude": 43.263066, "longitude": -2.934945, "country": "ES" }, "geometry": { "type": "Point", "coordinates": [ -2.934945, 43.263066 ] } },
{ "type": "Feature", "properties": { "name": "Bilbao la Concordia", "latitude": 43.260101, "longitude": -2.926591, "country": "ES" }, "geometry": { "type": "Point", "coordinates": [ -2.926591, 43.260101 ] } },
{ "type": "Feature", "properties": { "name": "Binefar", "latitude": 41.849559, "longitude": 0.291277, "country": "ES" }, "geometry": { "type": "Point", "coordinates": [ 0.291277, 41.849559 ] } },
{ "type": "Feature", "properties": { "name": "Bordils-Juia", "latitude": 42.037002, "longitude": 2.915363, "country": "ES" }, "geometry": { "type": "Point", "coordinates": [ 2.915363, 42.037002 ] } },
{ "type": "Feature", "properties": { "name": "Bonar", "latitude": 42.862562, "longitude": -5.328284, "country": "ES" }, "geometry": { "type": "Point", "coordinates": [ -5.328284, 42.862562 ] } },
{ "type": "Feature", "properties": { "name": "Brazatortas-Veredas", "latitude": 38.668798, "longitude": -4.316979, "country": "ES" }, "geometry": { "type": "Point", "coordinates": [ -4.316979, 38.668798 ] } },
{ "type": "Feature", "properties": { "name": "Branuelas", "latitude": 42.632762, "longitude": -6.200902, "country": "ES" }, "geometry": { "type": "Point", "coordinates": [ -6.200902, 42.632762 ] } },
{ "type": "Feature", "properties": { "name": "Briones", "latitude": 42.544888, "longitude": -2.779544, "country": "ES" }, "geometry": { "type": "Point", "coordinates": [ -2.779544, 42.544888 ] } },
{ "type": "Feature", "properties": { "name": "Bubierca", "latitude": 41.316831, "longitude": -1.855049, "country": "ES" }, "geometry": { "type": "Point", "coordinates": [ -1.855049, 41.316831 ] } },
{ "type": "Feature", "properties": { "name": "Bueu-Bus", "latitude": 42.327009, "longitude": -8.785889, "country": "ES" }, "geometry": { "type": "Point", "coordinates": [ -8.785889, 42.327009 ] } },
{ "type": "Feature", "properties": { "name": "Bufali", "latitude": 38.866552, "longitude": -0.510847, "country": "ES" }, "geometry": { "type": "Point", "coordinates": [ -0.510847, 38.866552 ] } },
{ "type": "Feature", "properties": { "name": "Burgos Rosa Manzano", "latitude": 42.371189, "longitude": -3.666297, "country": "ES" }, "geometry": { "type": "Point", "coordinates": [ -3.666297, 42.371189 ] } },
{ "type": "Feature", "properties": { "name": "Burriana-Alquerias Nino Perdido", "latitude": 39.8964, "longitude": -0.103867, "country": "ES" }, "geometry": { "type": "Point", "coordinates": [ -0.103867, 39.8964 ] } },
{ "type": "Feature", "properties": { "name": "Busdongo", "latitude": 42.984294, "longitude": -5.705444, "country": "ES" }, "geometry": { "type": "Point", "coordinates": [ -5.705444, 42.984294 ] } },
{ "type": "Feature", "properties": { "name": "Bunol", "latitude": 39.427434, "longitude": -0.787482, "country": "ES" }, "geometry": { "type": "Point", "coordinates": [ -0.787482, 39.427434 ] } },
{ "type": "Feature", "properties": { "name": "Cabanas-Areal", "latitude": 43.415822, "longitude": -8.168821, "country": "ES" }, "geometry": { "type": "Point", "coordinates": [ -8.168821, 43.415822 ] } },
{ "type": "Feature", "properties": { "name": "Cabanas de Aliste", "latitude": 41.854566, "longitude": -6.246927, "country": "ES" }, "geometry": { "type": "Point", "coordinates": [ -6.246927, 41.854566 ] } },
{ "type": "Feature", "properties": { "name": "Cabanas de Ebro", "latitude": 41.788064, "longitude": -1.167438, "country": "ES" }, "geometry": { "type": "Point", "coordinates": [ -1.167438, 41.788064 ] } },
{ "type": "Feature", "properties": { "name": "Cabanas de Virtus", "latitude": 42.994884, "longitude": -3.858367, "country": "ES" }, "geometry": { "type": "Point", "coordinates": [ -3.858367, 42.994884 ] } },
{ "type": "Feature", "properties": { "name": "Cabeza de Buey", "latitude": 38.724, "longitude": -5.22659, "country": "ES" }, "geometry": { "type": "Point", "coordinates": [ -5.22659, 38.724 ] } },
{ "type": "Feature", "properties": { "name": "Cabezon de la Sal", "latitude": 43.307753, "longitude": -4.231878, "country": "ES" }, "geometry": { "type": "Point", "coordinates": [ -4.231878, 43.307753 ] } },
{ "type": "Feature", "properties": { "name": "Cabra del Santo Cristo y Alicun", "latitude": 37.6567, "longitude": -3.26258, "country": "ES" }, "geometry": { "type": "Point", "coordinates": [ -3.26258, 37.6567 ] } },
{ "type": "Feature", "properties": { "name": "Cadagua", "latitude": 43.068107, "longitude": -3.347375, "country": "ES" }, "geometry": { "type": "Point", "coordinates": [ -3.347375, 43.068107 ] } },
{ "type": "Feature", "properties": { "name": "Cadiz-Cortadura", "latitude": 36.494316, "longitude": -6.268142, "country": "ES" }, "geometry": { "type": "Point", "coordinates": [ -6.268142, 36.494316 ] } },
{ "type": "Feature", "properties": { "name": "Cadiz-Estadio", "latitude": 36.502982, "longitude": -6.272025, "country": "ES" }, "geometry": { "type": "Point", "coordinates": [ -6.272025, 36.502982 ] } },
{ "type": "Feature", "properties": { "name": "Calaf", "latitude": 41.730245, "longitude": 1.515176, "country": "ES" }, "geometry": { "type": "Point", "coordinates": [ 1.515176, 41.730245 ] } },
{ "type": "Feature", "properties": { "name": "Calafell", "latitude": 41.189499, "longitude": 1.570001, "country": "ES" }, "geometry": { "type": "Point", "coordinates": [ 1.570001, 41.189499 ] } },
{ "type": "Feature", "properties": { "name": "Calahorra", "latitude": 42.310634, "longitude": -1.957392, "country": "ES" }, "geometry": { "type": "Point", "coordinates": [ -1.957392, 42.310634 ] } },
{ "type": "Feature", "properties": { "name": "Calamonte", "latitude": 38.887344, "longitude": -6.382862, "country": "ES" }, "geometry": { "type": "Point", "coordinates": [ -6.382862, 38.887344 ] } },
{ "type": "Feature", "properties": { "name": "Calatayud", "latitude": 41.346298, "longitude": -1.63849, "country": "ES" }, "geometry": { "type": "Point", "coordinates": [ -1.63849, 41.346298 ] } },
{ "type": "Feature", "properties": { "name": "Calanas", "latitude": 37.652136, "longitude": -6.876271, "country": "ES" }, "geometry": { "type": "Point", "coordinates": [ -6.876271, 37.652136 ] } },
{ "type": "Feature", "properties": { "name": "Caldearenas-Aquilue", "latitude": 42.397982, "longitude": -0.49944, "country": "ES" }, "geometry": { "type": "Point", "coordinates": [ -0.49944, 42.397982 ] } },
{ "type": "Feature", "properties": { "name": "Caldelas", "latitude": 42.055637, "longitude": -8.566396, "country": "ES" }, "geometry": { "type": "Point", "coordinates": [ -8.566396, 42.055637 ] } },
{ "type": "Feature", "properties": { "name": "Callosa de Segura", "latitude": 38.122928, "longitude": -0.873679, "country": "ES" }, "geometry": { "type": "Point", "coordinates": [ -0.873679, 38.122928 ] } },
{ "type": "Feature", "properties": { "name": "Calzada de Asturias", "latitude": 43.535288, "longitude": -5.697731, "country": "ES" }, "geometry": { "type": "Point", "coordinates": [ -5.697731, 43.535288 ] } },
{ "type": "Feature", "properties": { "name": "Calzada de Bureba", "latitude": 42.622922, "longitude": -3.246383, "country": "ES" }, "geometry": { "type": "Point", "coordinates": [ -3.246383, 42.622922 ] } },
{ "type": "Feature", "properties": { "name": "Camallera", "latitude": 42.122597, "longitude": 2.965667, "country": "ES" }, "geometry": { "type": "Point", "coordinates": [ 2.965667, 42.122597 ] } },
{ "type": "Feature", "properties": { "name": "Camango", "latitude": 43.448776, "longitude": -5.019064, "country": "ES" }, "geometry": { "type": "Point", "coordinates": [ -5.019064, 43.448776 ] } },
{ "type": "Feature", "properties": { "name": "Camarles-Deltebre", "latitude": 40.774593, "longitude": 0.670712, "country": "ES" }, "geometry": { "type": "Point", "coordinates": [ 0.670712, 40.774593 ] } },
{ "type": "Feature", "properties": { "name": "Cambre", "latitude": 43.290692, "longitude": -8.352399, "country": "ES" }, "geometry": { "type": "Point", "coordinates": [ -8.352399, 43.290692 ] } },
{ "type": "Feature", "properties": { "name": "Camp-Redo", "latitude": 40.758988, "longitude": 0.555344, "country": "ES" }, "geometry": { "type": "Point", "coordinates": [ 0.555344, 40.758988 ] } },
{ "type": "Feature", "properties": { "name": "Campanario", "latitude": 38.853382, "longitude": -5.641495, "country": "ES" }, "geometry": { "type": "Point", "coordinates": [ -5.641495, 38.853382 ] } },
{ "type": "Feature", "properties": { "name": "Campillo", "latitude": 41.259822, "longitude": -5.017805, "country": "ES" }, "geometry": { "type": "Point", "coordinates": [ -5.017805, 41.259822 ] } },
{ "type": "Feature", "properties": { "name": "Campillos", "latitude": 37.032042, "longitude": -4.863802, "country": "ES" }, "geometry": { "type": "Point", "coordinates": [ -4.863802, 37.032042 ] } },
{ "type": "Feature", "properties": { "name": "Campo de Criptana", "latitude": 39.393463, "longitude": -3.116353, "country": "ES" }, "geometry": { "type": "Point", "coordinates": [ -3.116353, 39.393463 ] } },
{ "type": "Feature", "properties": { "name": "Campomanes", "latitude": 43.110143, "longitude": -5.816236, "country": "ES" }, "geometry": { "type": "Point", "coordinates": [ -5.816236, 43.110143 ] } },
{ "type": "Feature", "properties": { "name": "Camporrobles", "latitude": 39.644667, "longitude": -1.402191, "country": "ES" }, "geometry": { "type": "Point", "coordinates": [ -1.402191, 39.644667 ] } },
{ "type": "Feature", "properties": { "name": "Campus Universitario Rabanales \/ Cordoba", "latitude": 37.912634, "longitude": -4.720802, "country": "ES" }, "geometry": { "type": "Point", "coordinates": [ -4.720802, 37.912634 ] } },
{ "type": "Feature", "properties": { "name": "Canabal", "latitude": 42.482759, "longitude": -7.587695, "country": "ES" }, "geometry": { "type": "Point", "coordinates": [ -7.587695, 42.482759 ] } },
{ "type": "Feature", "properties": { "name": "Cancienes", "latitude": 43.507251, "longitude": -5.869452, "country": "ES" }, "geometry": { "type": "Point", "coordinates": [ -5.869452, 43.507251 ] } },
{ "type": "Feature", "properties": { "name": "Candanchu-Bus", "latitude": 42.789088, "longitude": -0.528473, "country": "ES" }, "geometry": { "type": "Point", "coordinates": [ -0.528473, 42.789088 ] } },
{ "type": "Feature", "properties": { "name": "Cangas-Bus", "latitude": 43.350075, "longitude": -5.125818, "country": "ES" }, "geometry": { "type": "Point", "coordinates": [ -5.125818, 43.350075 ] } },
{ "type": "Feature", "properties": { "name": "Cantillana", "latitude": 37.574406, "longitude": -5.803085, "country": "ES" }, "geometry": { "type": "Point", "coordinates": [ -5.803085, 37.574406 ] } },
{ "type": "Feature", "properties": { "name": "Capcanes", "latitude": 41.102313, "longitude": 0.780758, "country": "ES" }, "geometry": { "type": "Point", "coordinates": [ 0.780758, 41.102313 ] } },
{ "type": "Feature", "properties": { "name": "Caracenilla", "latitude": 40.1535, "longitude": -2.56845, "country": "ES" }, "geometry": { "type": "Point", "coordinates": [ -2.56845, 40.1535 ] } },
{ "type": "Feature", "properties": { "name": "Carancos", "latitude": 43.355387, "longitude": -5.434392, "country": "ES" }, "geometry": { "type": "Point", "coordinates": [ -5.434392, 43.355387 ] } },
{ "type": "Feature", "properties": { "name": "Carbajales de Alba", "latitude": 41.681137, "longitude": -5.97148, "country": "ES" }, "geometry": { "type": "Point", "coordinates": [ -5.97148, 41.681137 ] } },
{ "type": "Feature", "properties": { "name": "Carboneras de Guadazaon", "latitude": 39.900266, "longitude": -1.80729, "country": "ES" }, "geometry": { "type": "Point", "coordinates": [ -1.80729, 39.900266 ] } },
{ "type": "Feature", "properties": { "name": "Carcaixent", "latitude": 39.12065, "longitude": -0.454638, "country": "ES" }, "geometry": { "type": "Point", "coordinates": [ -0.454638, 39.12065 ] } },
{ "type": "Feature", "properties": { "name": "Cardedeu", "latitude": 41.63638, "longitude": 2.35636, "country": "ES" }, "geometry": { "type": "Point", "coordinates": [ 2.35636, 41.63638 ] } },
{ "type": "Feature", "properties": { "name": "Cardenosa de Avila", "latitude": 40.73976, "longitude": -4.751158, "country": "ES" }, "geometry": { "type": "Point", "coordinates": [ -4.751158, 40.73976 ] } },
{ "type": "Feature", "properties": { "name": "Carinena", "latitude": 41.335745, "longitude": -1.22878, "country": "ES" }, "geometry": { "type": "Point", "coordinates": [ -1.22878, 41.335745 ] } },
{ "type": "Feature", "properties": { "name": "Carrascosa de Henares", "latitude": 40.906006, "longitude": -3.013966, "country": "ES" }, "geometry": { "type": "Point", "coordinates": [ -3.013966, 40.906006 ] } },
{ "type": "Feature", "properties": { "name": "Carrion de los Cespedes", "latitude": 37.369209, "longitude": -6.334635, "country": "ES" }, "geometry": { "type": "Point", "coordinates": [ -6.334635, 37.369209 ] } },
{ "type": "Feature", "properties": { "name": "Cartama", "latitude": 36.73387, "longitude": -4.608427, "country": "ES" }, "geometry": { "type": "Point", "coordinates": [ -4.608427, 36.73387 ] } },
{ "type": "Feature", "properties": { "name": "Casariche", "latitude": 37.294566, "longitude": -4.764425, "country": "ES" }, "geometry": { "type": "Point", "coordinates": [ -4.764425, 37.294566 ] } },
{ "type": "Feature", "properties": { "name": "Casas de Millan", "latitude": 39.804216, "longitude": -6.332388, "country": "ES" }, "geometry": { "type": "Point", "coordinates": [ -6.332388, 39.804216 ] } },
{ "type": "Feature", "properties": { "name": "Casatejada", "latitude": 39.892059, "longitude": -5.67755, "country": "ES" }, "geometry": { "type": "Point", "coordinates": [ -5.67755, 39.892059 ] } },
{ "type": "Feature", "properties": { "name": "Casetas", "latitude": 41.722532, "longitude": -1.020608, "country": "ES" }, "geometry": { "type": "Point", "coordinates": [ -1.020608, 41.722532 ] } },
{ "type": "Feature", "properties": { "name": "Castellbell i el Vilar-Monistrol de Montserrat", "latitude": 41.628613, "longitude": 1.868866, "country": "ES" }, "geometry": { "type": "Point", "coordinates": [ 1.868866, 41.628613 ] } },
{ "type": "Feature", "properties": { "name": "Castelldefels", "latitude": 41.278798, "longitude": 1.979334, "country": "ES" }, "geometry": { "type": "Point", "coordinates": [ 1.979334, 41.278798 ] } },
{ "type": "Feature", "properties": { "name": "Castellnou de Seana", "latitude": 41.640461, "longitude": 0.989919, "country": "ES" }, "geometry": { "type": "Point", "coordinates": [ 0.989919, 41.640461 ] } },
{ "type": "Feature", "properties": { "name": "Castiello", "latitude": 42.650309, "longitude": -0.555497, "country": "ES" }, "geometry": { "type": "Point", "coordinates": [ -0.555497, 42.650309 ] } },
{ "type": "Feature", "properties": { "name": "Castiello-Pueblo", "latitude": 42.627773, "longitude": -0.545465, "country": "ES" }, "geometry": { "type": "Point", "coordinates": [ -0.545465, 42.627773 ] } },
{ "type": "Feature", "properties": { "name": "Castillejo del Romeral", "latitude": 40.1372, "longitude": -2.50689, "country": "ES" }, "geometry": { "type": "Point", "coordinates": [ -2.50689, 40.1372 ] } },
{ "type": "Feature", "properties": { "name": "Castillejo-Anover", "latitude": 39.950057, "longitude": -3.737768, "country": "ES" }, "geometry": { "type": "Point", "coordinates": [ -3.737768, 39.950057 ] } },
{ "type": "Feature", "properties": { "name": "Castrejon de la Pena", "latitude": 42.810596, "longitude": -4.598458, "country": "ES" }, "geometry": { "type": "Point", "coordinates": [ -4.598458, 42.810596 ] } },
{ "type": "Feature", "properties": { "name": "Castrelo do Val-Verin-Campobecerros", "latitude": 42.0626, "longitude": -7.33335, "country": "ES" }, "geometry": { "type": "Point", "coordinates": [ -7.33335, 42.0626 ] } },
{ "type": "Feature", "properties": { "name": "Castuera", "latitude": 38.734635, "longitude": -5.540609, "country": "ES" }, "geometry": { "type": "Point", "coordinates": [ -5.540609, 38.734635 ] } },
{ "type": "Feature", "properties": { "name": "Catarroja", "latitude": 39.399792, "longitude": -0.399004, "country": "ES" }, "geometry": { "type": "Point", "coordinates": [ -0.399004, 39.399792 ] } },
{ "type": "Feature", "properties": { "name": "Catoira", "latitude": 42.67218, "longitude": -8.725433, "country": "ES" }, "geometry": { "type": "Point", "coordinates": [ -8.725433, 42.67218 ] } },
{ "type": "Feature", "properties": { "name": "Cazalla-Constantina", "latitude": 37.932545, "longitude": -5.704671, "country": "ES" }, "geometry": { "type": "Point", "coordinates": [ -5.704671, 37.932545 ] } },
{ "type": "Feature", "properties": { "name": "Canada del Hoyo", "latitude": 39.953833, "longitude": -1.889352, "country": "ES" }, "geometry": { "type": "Point", "coordinates": [ -1.889352, 39.953833 ] } },
{ "type": "Feature", "properties": { "name": "Canaveral", "latitude": 39.788854, "longitude": -6.374979, "country": "ES" }, "geometry": { "type": "Point", "coordinates": [ -6.374979, 39.788854 ] } },
{ "type": "Feature", "properties": { "name": "Cecebre", "latitude": 43.287869, "longitude": -8.307848, "country": "ES" }, "geometry": { "type": "Point", "coordinates": [ -8.307848, 43.287869 ] } },
{ "type": "Feature", "properties": { "name": "Cella", "latitude": 40.455143, "longitude": -1.244556, "country": "ES" }, "geometry": { "type": "Point", "coordinates": [ -1.244556, 40.455143 ] } },
{ "type": "Feature", "properties": { "name": "Cellers-Llimiana", "latitude": 42.062729, "longitude": 0.875639, "country": "ES" }, "geometry": { "type": "Point", "coordinates": [ 0.875639, 42.062729 ] } },
{ "type": "Feature", "properties": { "name": "Celorio", "latitude": 43.424721, "longitude": -4.811305, "country": "ES" }, "geometry": { "type": "Point", "coordinates": [ -4.811305, 43.424721 ] } },
{ "type": "Feature", "properties": { "name": "Celra", "latitude": 42.027312, "longitude": 2.874921, "country": "ES" }, "geometry": { "type": "Point", "coordinates": [ 2.874921, 42.027312 ] } },
{ "type": "Feature", "properties": { "name": "Cenicero San Isidro", "latitude": 42.4822, "longitude": -2.6465, "country": "ES" }, "geometry": { "type": "Point", "coordinates": [ -2.6465, 42.4822 ] } },
{ "type": "Feature", "properties": { "name": "Cerceda", "latitude": 43.161155, "longitude": -8.471019, "country": "ES" }, "geometry": { "type": "Point", "coordinates": [ -8.471019, 43.161155 ] } },
{ "type": "Feature", "properties": { "name": "Cerceda-Meirama", "latitude": 43.206436, "longitude": -8.446615, "country": "ES" }, "geometry": { "type": "Point", "coordinates": [ -8.446615, 43.206436 ] } },
{ "type": "Feature", "properties": { "name": "Cercedilla", "latitude": 40.737701, "longitude": -4.06574, "country": "ES" }, "geometry": { "type": "Point", "coordinates": [ -4.06574, 40.737701 ] } },
{ "type": "Feature", "properties": { "name": "Cerdanyola del Valles", "latitude": 41.492436, "longitude": 2.147531, "country": "ES" }, "geometry": { "type": "Point", "coordinates": [ 2.147531, 41.492436 ] } },
{ "type": "Feature", "properties": { "name": "Cerezal de la Guzpena", "latitude": 42.779934, "longitude": -5.006119, "country": "ES" }, "geometry": { "type": "Point", "coordinates": [ -5.006119, 42.779934 ] } },
{ "type": "Feature", "properties": { "name": "Cervera", "latitude": 41.673658, "longitude": 1.274769, "country": "ES" }, "geometry": { "type": "Point", "coordinates": [ 1.274769, 41.673658 ] } },
{ "type": "Feature", "properties": { "name": "Cesantes", "latitude": 42.310283, "longitude": -8.616367, "country": "ES" }, "geometry": { "type": "Point", "coordinates": [ -8.616367, 42.310283 ] } },
{ "type": "Feature", "properties": { "name": "Cesuras", "latitude": 43.17332, "longitude": -8.20084, "country": "ES" }, "geometry": { "type": "Point", "coordinates": [ -8.20084, 43.17332 ] } },
{ "type": "Feature", "properties": { "name": "Cetina", "latitude": 41.295806, "longitude": -1.961877, "country": "ES" }, "geometry": { "type": "Point", "coordinates": [ -1.961877, 41.295806 ] } },
{ "type": "Feature", "properties": { "name": "Ceuta-Barco", "latitude": 35.895039, "longitude": -5.321664, "country": "ES" }, "geometry": { "type": "Point", "coordinates": [ -5.321664, 35.895039 ] } },
{ "type": "Feature", "properties": { "name": "Chapela", "latitude": 42.268284, "longitude": -8.67078, "country": "ES" }, "geometry": { "type": "Point", "coordinates": [ -8.67078, 42.268284 ] } },
{ "type": "Feature", "properties": { "name": "Cheste", "latitude": 39.490897, "longitude": -0.686137, "country": "ES" }, "geometry": { "type": "Point", "coordinates": [ -0.686137, 39.490897 ] } },
{ "type": "Feature", "properties": { "name": "Chilches", "latitude": 39.782175, "longitude": -0.190526, "country": "ES" }, "geometry": { "type": "Point", "coordinates": [ -0.190526, 39.782175 ] } },
{ "type": "Feature", "properties": { "name": "Chillaron", "latitude": 40.102784, "longitude": -2.221036, "country": "ES" }, "geometry": { "type": "Point", "coordinates": [ -2.221036, 40.102784 ] } },
{ "type": "Feature", "properties": { "name": "Chiprana", "latitude": 41.2315, "longitude": -0.155806, "country": "ES" }, "geometry": { "type": "Point", "coordinates": [ -0.155806, 41.2315 ] } },
{ "type": "Feature", "properties": { "name": "Chiva", "latitude": 39.471085, "longitude": -0.722867, "country": "ES" }, "geometry": { "type": "Point", "coordinates": [ -0.722867, 39.471085 ] } },
{ "type": "Feature", "properties": { "name": "Cicero", "latitude": 43.417084, "longitude": -3.490408, "country": "ES" }, "geometry": { "type": "Point", "coordinates": [ -3.490408, 43.417084 ] } },
{ "type": "Feature", "properties": { "name": "Cillamayor", "latitude": 42.857843, "longitude": -4.277651, "country": "ES" }, "geometry": { "type": "Point", "coordinates": [ -4.277651, 42.857843 ] } },
{ "type": "Feature", "properties": { "name": "Cinco Casas", "latitude": 39.168463, "longitude": -3.232583, "country": "ES" }, "geometry": { "type": "Point", "coordinates": [ -3.232583, 39.168463 ] } },
{ "type": "Feature", "properties": { "name": "Circuit Ricardo Tormo", "latitude": 39.495473, "longitude": -0.625316, "country": "ES" }, "geometry": { "type": "Point", "coordinates": [ -0.625316, 39.495473 ] } },
{ "type": "Feature", "properties": { "name": "Cisneros", "latitude": 42.191365, "longitude": -4.850345, "country": "ES" }, "geometry": { "type": "Point", "coordinates": [ -4.850345, 42.191365 ] } },
{ "type": "Feature", "properties": { "name": "Cistierna", "latitude": 42.803117, "longitude": -5.130835, "country": "ES" }, "geometry": { "type": "Point", "coordinates": [ -5.130835, 42.803117 ] } },
{ "type": "Feature", "properties": { "name": "Cizurmayor", "latitude": 42.7974, "longitude": -1.67761, "country": "ES" }, "geometry": { "type": "Point", "coordinates": [ -1.67761, 42.7974 ] } },
{ "type": "Feature", "properties": { "name": "Cinera", "latitude": 42.8894, "longitude": -5.64045, "country": "ES" }, "geometry": { "type": "Point", "coordinates": [ -5.64045, 42.8894 ] } },
{ "type": "Feature", "properties": { "name": "Cocentaina", "latitude": 38.74073, "longitude": -0.447078, "country": "ES" }, "geometry": { "type": "Point", "coordinates": [ -0.447078, 38.74073 ] } },
{ "type": "Feature", "properties": { "name": "Colera", "latitude": 42.4068, "longitude": 3.154377, "country": "ES" }, "geometry": { "type": "Point", "coordinates": [ 3.154377, 42.4068 ] } },
{ "type": "Feature", "properties": { "name": "Collado Mediano", "latitude": 40.69253, "longitude": -4.035931, "country": "ES" }, "geometry": { "type": "Point", "coordinates": [ -4.035931, 40.69253 ] } },
{ "type": "Feature", "properties": { "name": "Colloto", "latitude": 43.379128, "longitude": -5.791561, "country": "ES" }, "geometry": { "type": "Point", "coordinates": [ -5.791561, 43.379128 ] } },
{ "type": "Feature", "properties": { "name": "Colombres", "latitude": 43.382867, "longitude": -4.556973, "country": "ES" }, "geometry": { "type": "Point", "coordinates": [ -4.556973, 43.382867 ] } },
{ "type": "Feature", "properties": { "name": "Cortes de la Frontera", "latitude": 36.598636, "longitude": -5.332814, "country": "ES" }, "geometry": { "type": "Point", "coordinates": [ -5.332814, 36.598636 ] } },
{ "type": "Feature", "properties": { "name": "Cortes de Navarra", "latitude": 41.914803, "longitude": -1.4199, "country": "ES" }, "geometry": { "type": "Point", "coordinates": [ -1.4199, 41.914803 ] } },
{ "type": "Feature", "properties": { "name": "Coscurita", "latitude": 41.4399, "longitude": -2.4698, "country": "ES" }, "geometry": { "type": "Point", "coordinates": [ -2.4698, 41.4399 ] } },
{ "type": "Feature", "properties": { "name": "Coslada", "latitude": 40.423582, "longitude": -3.561121, "country": "ES" }, "geometry": { "type": "Point", "coordinates": [ -3.561121, 40.423582 ] } },
{ "type": "Feature", "properties": { "name": "Covas", "latitude": 42.475658, "longitude": -6.831064, "country": "ES" }, "geometry": { "type": "Point", "coordinates": [ -6.831064, 42.475658 ] } },
{ "type": "Feature", "properties": { "name": "Crespos", "latitude": 40.869951, "longitude": -4.967843, "country": "ES" }, "geometry": { "type": "Point", "coordinates": [ -4.967843, 40.869951 ] } },
{ "type": "Feature", "properties": { "name": "Crevillent", "latitude": 38.224587, "longitude": -0.781081, "country": "ES" }, "geometry": { "type": "Point", "coordinates": [ -0.781081, 38.224587 ] } },